$GPRMC,144147.1,A,0436.07813,N,07403.92475,W,000.14,000.0,070315,006.6,W,A*33
$GPGGA,144147.1,0436.07813,N,07403.92475,W,1,04,6.6,2665.9,M,7.6,M,,*46
$GPVTG,000.0,T,006.6,M,000.14,N,0000.27,K,A*13
$GPRMC,144147.2,A,0436.07813,N,07403.92475,W,000.15,000.0,070315,006.6,W,A*31
$GPGGA,144147.2,0436.07813,N,07403.92475,W,1,04,6.6,2665.9,M,7.6,M,,*45
$GPVTG,000.0,T,006.6,M,000.15,N,0000.28,K,A*1D
$GPRMC,144147.3,A,0436.07813,N,07403.92475,W,000.18,000.0,070315,006.6,W,A*3D
$GPGGA,144147.3,0436.07813,N,07403.92475,W,1,04,6.6,2665.9,M,7.6,M,,*44
$GPVTG,000.0,T,006.6,M,000.18,N,0000.33,K,A*1A
$GPRMC,144147.4,A,0436.07813,N,07403.92475,W,000.18,000.0,070315,006.6,W,A*3A
$GPGGA,144147.4,0436.07813,N,07403.92475,W,1,04,6.6,2665.9,M,7.6,M,,*43
$GPVTG,000.0,T,006.6,M,000.18,N,0000.33,K,A*1A
$GPRMC,144147.5,A,0436.07813,N,07403.92475,W,000.18,000.0,070315,006.6,W,A*3B
$GPGGA,144147.5,0436.07813,N,07403.92475,W,1,04,6.6,2665.9,M,7.6,M,,*42
$GPVTG,000.0,T,006.6,M,000.18,N,0000.34,K,A*1D
$GPRMC,144147.6,A,0436.07813,N,07403.92475,W,000.17,000.0,070315,006.6,W,A*37
$GPGGA,144147.6,0436.07813,N,07403.92475,W,1,04,6.6,2665.9,M,7.6,M,,*41
$GPVTG,000.0,T,006.6,M,000.17,N,0000.32,K,A*14
$GPRMC,144147.7,A,0436.07815,N,07403.92472,W,000.17,000.0,070315,006.6,W,A*37
$GPGGA,144147.7,0436.07815,N,07403.92472,W,1,04,6.6,2665.9,M,7.6,M,,*41
$GPVTG,000.0,T,006.6,M,000.17,N,0000.31,K,A*17
$GPRMC,144147.8,A,0436.07815,N,07403.92472,W,000.16,000.0,070315,006.6,W,A*39
$GPGGA,144147.8,0436.07815,N,07403.92472,W,1,04,6.6,2665.1,M,7.6,M,,*46
$GPVTG,000.0,T,006.6,M,000.16,N,0000.30,K,A*17
$GPRMC,144147.9,A,0436.07815,N,07403.92472,W,000.20,000.0,070315,006.6,W,A*3D
$GPGGA,144147.9,0436.07815,N,07403.92472,W,1,04,6.6,2665.1,M,7.6,M,,*47
$GPVTG,000.0,T,006.6,M,000.20,N,0000.37,K,A*15
$GPRMC,144148.0,A,0436.07815,N,07403.92472,W,000.23,000.0,070315,006.6,W,A*38
$GPGGA,144148.0,0436.07815,N,07403.92472,W,1,04,6.6,2665.1,M,7.6,M,,*41
$GPVTG,000.0,T,006.6,M,000.23,N,0000.42,K,A*14
$GPGSA,A,3,21,14,24,15,,,,,,,,,7.0,6.6,2.4*37
$GPGSV,1,1,04,21,65,319,40,14,26,270,38,24,52,041,43,15,14,032,20*7C
$GPRMC,144148.1,A,0436.07815,N,07403.92472,W,000.23,000.0,070315,006.6,W,A*39
$GPGGA,144148.1,0436.07815,N,07403.92472,W,1,04,6.6,2665.1,M,7.6,M,,*40
$GPVTG,000.0,T,006.6,M,000.23,N,0000.43,K,A*15
$GPRMC,144148.2,A,0436.07815,N,07403.92472,W,000.26,000.0,070315,006.6,W,A*3F
$GPGGA,144148.2,0436.07815,N,07403.92472,W,1,04,6.6,2665.1,M,7.6,M,,*43
$GPVTG,000.0,T,006.6,M,000.26,N,0000.47,K,A*14
$GPRMC,144148.3,A,0436.07815,N,07403.92472,W,000.24,000.0,070315,006.6,W,A*3C
$GPGGA,144148.3,0436.07815,N,07403.92472,W,1,05,1.3,2665.1,M,7.6,M,,*41
$GPVTG,000.0,T,006.6,M,000.24,N,0000.45,K,A*14
$GPRMC,144148.4,A,0436.07815,N,07403.92472,W,000.24,000.0,070315,006.6,W,A*3B
$GPGGA,144148.4,0436.07815,N,07403.92472,W,1,05,1.3,2665.1,M,7.6,M,,*46
$GPVTG,000.0,T,006.6,M,000.24,N,0000.44,K,A*15
$GPRMC,144148.5,A,0436.07815,N,07403.92472,W,000.23,000.0,070315,006.6,W,A*3D
$GPGGA,144148.5,0436.07815,N,07403.92472,W,1,05,1.3,2665.1,M,7.6,M,,*47
$GPVTG,000.0,T,006.6,M,000.23,N,0000.42,K,A*14
$GPRMC,144148.6,A,0436.07815,N,07403.92472,W,000.25,000.0,070315,006.6,W,A*38
$GPGGA,144148.6,0436.07815,N,07403.92472,W,1,05,1.3,2665.1,M,7.6,M,,*44
$GPVTG,000.0,T,006.6,M,000.25,N,0000.47,K,A*17
$GPRMC,144148.7,A,0436.07822,N,07403.92470,W,000.26,000.0,070315,006.6,W,A*3C
$GPGGA,144148.7,0436.07822,N,07403.92470,W,1,05,1.3,2665.1,M,7.6,M,,*43
$GPVTG,000.0,T,006.6,M,000.26,N,0000.48,K,A*1B
$GPRMC,144148.8,A,0436.07822,N,07403.92470,W,000.26,000.0,070315,006.6,W,A*33
$GPGGA,144148.8,0436.07822,N,07403.92470,W,1,05,1.3,2664.6,M,7.6,M,,*4A
$GPVTG,000.0,T,006.6,M,000.26,N,0000.48,K,A*1B
$GPRMC,144148.9,A,0436.07822,N,07403.92470,W,000.24,000.0,070315,006.6,W,A*30
$GPGGA,144148.9,0436.07822,N,07403.92470,W,1,05,1.3,2664.6,M,7.6,M,,*4B
$GPVTG,000.0,T,006.6,M,000.24,N,0000.45,K,A*14
$GPRMC,144149.0,A,0436.07822,N,07403.92470,W,000.25,000.0,070315,006.6,W,A*39
$GPGGA,144149.0,0436.07822,N,07403.92470,W,1,05,1.3,2664.6,M,7.6,M,,*43
$GPVTG,000.0,T,006.6,M,000.25,N,0000.46,K,A*16
$GPGSA,A,3,21,14,24,29,15,,,,,,,,2.3,1.3,1.8*37
$GPGSV,2,1,05,21,65,319,40,14,26,270,38,24,52,041,43,29,26,188,24*74
$GPGSV,2,2,05,15,14,032,15*48
$GPRMC,144149.1,A,0436.07822,N,07403.92470,W,000.24,000.0,070315,006.6,W,A*39
$GPGGA,144149.1,0436.07822,N,07403.92470,W,1,04,2.0,2664.6,M,7.6,M,,*43
$GPVTG,000.0,T,006.6,M,000.24,N,0000.44,K,A*15
$GPRMC,144149.2,A,0436.07822,N,07403.92470,W,000.24,000.0,070315,006.6,W,A*3A
$GPGGA,144149.2,0436.07822,N,07403.92470,W,1,04,2.0,2664.6,M,7.6,M,,*40
$GPVTG,000.0,T,006.6,M,000.24,N,0000.44,K,A*15
$GPRMC,144149.3,A,0436.07822,N,07403.92470,W,000.24,000.0,070315,006.6,W,A*3B
$GPGGA,144149.3,0436.07822,N,07403.92470,W,1,05,1.3,2664.6,M,7.6,M,,*40
$GPVTG,000.0,T,006.6,M,000.24,N,0000.45,K,A*14
$GPRMC,144149.4,A,0436.07822,N,07403.92470,W,000.29,000.0,070315,006.6,W,A*31
$GPGGA,144149.4,0436.07822,N,07403.92470,W,1,05,1.3,2664.6,M,7.6,M,,*47
$GPVTG,000.0,T,006.6,M,000.29,N,0000.55,K,A*18
$GPRMC,144149.5,A,0436.07822,N,07403.92470,W,000.34,000.0,070315,006.6,W,A*3C
$GPGGA,144149.5,0436.07822,N,07403.92470,W,1,05,1.3,,M,7.6,M,,*58
$GPVTG,000.0,T,006.6,M,000.34,N,0000.63,K,A*11
$GPRMC,144149.6,A,0436.07822,N,07403.92470,W,000.38,000.0,070315,006.6,W,A*33
$GPGGA,144149.6,0436.07822,N,07403.92470,W,1,05,1.3,2664.6,M,7.6,M,,*45
$GPVTG,000.0,T,006.6,M,000.38,N,0000.70,K,A*1F
$GPRMC,144149.7,A,0436.07876,N,07403.92475,W,000.41,000.0,070315,006.6,W,A*38
$GPGGA,144149.7,0436.07876,N,07403.92475,W,1,05,1.3,,M,7.6,M,,*5E
$GPVTG,000.0,T,006.6,M,000.41,N,0000.75,K,A*14
$GPRMC,144149.8,A,0436.07868,N,07403.92463,W,000.98,000.0,070315,006.6,W,A*3B
$GPGGA,144149.8,0436.07868,N,07403.92463,W,1,05,1.3,,M,7.6,M,,*59
$GPVTG,000.0,T,006.6,M,000.98,N,0001.82,K,A*19
$GPRMC,144149.9,A,0436.07870,N,07403.92464,W,000.95,000.0,070315,006.6,W,A*39
$GPGGA,144149.9,0436.07870,N,07403.92464,W,1,05,1.3,,M,7.6,M,,*56
$GPVTG,000.0,T,006.6,M,000.95,N,0001.75,K,A*1C
$GPRMC,144150.0,A,0436.07872,N,07403.92465,W,001.19,000.0,070315,006.6,W,A*3E
$GPGGA,144150.0,0436.07872,N,07403.92465,W,1,05,1.3,,M,7.6,M,,*54
$GPVTG,000.0,T,006.6,M,001.19,N,0002.21,K,A*1B
$GPGSA,A,2,21,14,24,29,15,,,,,,,,2.3,1.3,*11
$GPGSV,2,1,05,21,65,319,41,14,26,270,40,24,52,041,45,29,26,188,24*7C
$GPGSV,2,2,05,15,14,032,15*48
$GPRMC,144150.1,A,0436.07875,N,07403.92466,W,001.16,000.0,070315,006.6,W,A*34
$GPGGA,144150.1,0436.07875,N,07403.92466,W,1,05,1.3,2664.5,M,7.6,M,,*4C
$GPVTG,000.0,T,006.6,M,001.16,N,0002.14,K,A*12
$GPRMC,144150.2,A,0436.07876,N,07403.92467,W,001.14,000.0,070315,006.6,W,A*37
$GPGGA,144150.2,0436.07876,N,07403.92467,W,1,05,1.3,2664.5,M,7.6,M,,*4D
$GPVTG,000.0,T,006.6,M,001.14,N,0002.11,K,A*15
$GPRMC,144150.3,A,0436.07881,N,07403.92470,W,001.48,000.0,070315,006.6,W,A*31
$GPGGA,144150.3,0436.07881,N,07403.92470,W,1,05,1.3,2664.5,M,7.6,M,,*42
$GPVTG,000.0,T,006.6,M,001.48,N,0002.73,K,A*18
$GPRMC,144150.4,A,0436.07884,N,07403.92471,W,001.03,000.0,070315,006.6,W,A*3D
$GPGGA,144150.4,0436.07884,N,07403.92471,W,1,05,1.3,2664.5,M,7.6,M,,*41
$GPVTG,000.0,T,006.6,M,001.03,N,0001.90,K,A*19
$GPRMC,144150.5,A,0436.07886,N,07403.92473,W,001.04,000.0,070315,006.6,W,A*3B
$GPGGA,144150.5,0436.07886,N,07403.92473,W,1,05,1.3,2664.5,M,7.6,M,,*40
$GPVTG,000.0,T,006.6,M,001.04,N,0001.93,K,A*1D
$GPRMC,144150.6,A,0436.07888,N,07403.92475,W,001.04,000.0,070315,006.6,W,A*30
$GPGGA,144150.6,0436.07888,N,07403.92475,W,1,05,1.3,2664.5,M,7.6,M,,*4B
$GPVTG,000.0,T,006.6,M,001.04,N,0001.93,K,A*1D
$GPRMC,144150.7,A,0436.07889,N,07403.92476,W,001.04,000.0,070315,006.6,W,A*33
$GPGGA,144150.7,0436.07889,N,07403.92476,W,1,05,1.3,2664.5,M,7.6,M,,*48
$GPVTG,000.0,T,006.6,M,001.04,N,0001.92,K,A*1C
$GPRMC,144150.8,A,0436.07955,N,07403.92493,W,001.43,000.0,070315,006.6,W,A*34
$GPGGA,144150.8,0436.07955,N,07403.92493,W,1,05,1.3,2663.3,M,7.6,M,,*4D
$GPVTG,000.0,T,006.6,M,001.43,N,0002.66,K,A*17
$GPRMC,144150.9,A,0436.07958,N,07403.92495,W,001.41,000.0,070315,006.6,W,A*3C
$GPGGA,144150.9,0436.07958,N,07403.92495,W,1,05,1.3,2663.3,M,7.6,M,,*47
$GPVTG,000.0,T,006.6,M,001.41,N,0002.61,K,A*12
$GPRMC,144151.0,A,0436.07959,N,07403.92496,W,001.39,000.0,070315,006.6,W,A*39
$GPGGA,144151.0,0436.07959,N,07403.92496,W,1,05,1.3,2663.3,M,7.6,M,,*4D
$GPVTG,000.0,T,006.6,M,001.39,N,0002.58,K,A*17
$GPGSA,A,3,21,14,24,29,15,,,,,,,,2.3,1.3,1.8*37
$GPGSV,2,1,05,21,65,319,41,14,26,270,38,24,52,041,45,29,26,188,25*72
$GPGSV,2,2,05,15,14,032,19*44
$GPRMC,144151.1,A,0436.07963,N,07403.92500,W,001.34,000.0,070315,006.6,W,A*32
$GPGGA,144151.1,0436.07963,N,07403.92500,W,1,05,1.3,2663.3,M,7.6,M,,*4B
$GPVTG,000.0,T,006.6,M,001.34,N,0002.47,K,A*14
$GPRMC,144151.2,A,0436.07965,N,07403.92502,W,001.36,000.0,070315,006.6,W,A*37
$GPGGA,144151.2,0436.07965,N,07403.92502,W,1,05,1.3,2663.3,M,7.6,M,,*4C
$GPVTG,000.0,T,006.6,M,001.36,N,0002.51,K,A*11
$GPRMC,144151.3,A,0436.07968,N,07403.92504,W,001.06,000.0,070315,006.6,W,A*3E
$GPGGA,144151.3,0436.07968,N,07403.92504,W,1,05,1.3,2663.3,M,7.6,M,,*46
$GPVTG,000.0,T,006.6,M,001.06,N,0001.95,K,A*19
$GPRMC,144151.4,A,0436.07969,N,07403.92505,W,001.06,000.0,070315,006.6,W,A*39
$GPGGA,144151.4,0436.07969,N,07403.92505,W,1,05,1.3,2663.3,M,7.6,M,,*41
$GPVTG,000.0,T,006.6,M,001.06,N,0001.97,K,A*1B
$GPRMC,144151.5,A,0436.07973,N,07403.92507,W,001.04,000.0,070315,006.6,W,A*33
$GPGGA,144151.5,0436.07973,N,07403.92507,W,1,05,1.3,2663.3,M,7.6,M,,*49
$GPVTG,000.0,T,006.6,M,001.04,N,0001.93,K,A*1D
$GPRMC,144151.6,A,0436.07976,N,07403.92509,W,001.06,000.0,070315,006.6,W,A*39
$GPGGA,144151.6,0436.07976,N,07403.92509,W,1,05,1.3,2663.3,M,7.6,M,,*41
$GPVTG,000.0,T,006.6,M,001.06,N,0001.96,K,A*1A
$GPRMC,144151.7,A,0436.07978,N,07403.92511,W,001.10,000.0,070315,006.6,W,A*38
$GPGGA,144151.7,0436.07978,N,07403.92511,W,1,05,1.3,2663.3,M,7.6,M,,*47
$GPVTG,000.0,T,006.6,M,001.10,N,0002.03,K,A*12
$GPRMC,144151.8,A,0436.07988,N,07403.92513,W,001.15,000.0,070315,006.6,W,A*3F
$GPGGA,144151.8,0436.07988,N,07403.92513,W,1,05,1.3,2662.7,M,7.6,M,,*40
$GPVTG,000.0,T,006.6,M,001.15,N,0002.12,K,A*17
$GPRMC,144151.9,A,0436.07992,N,07403.92515,W,001.18,000.0,070315,006.6,W,A*3E
$GPGGA,144151.9,0436.07992,N,07403.92515,W,1,05,1.3,2662.7,M,7.6,M,,*4C
$GPVTG,000.0,T,006.6,M,001.18,N,0002.19,K,A*11
$GPRMC,144152.0,A,0436.07995,N,07403.92517,W,001.23,000.0,070315,006.6,W,A*39
$GPGGA,144152.0,0436.07995,N,07403.92517,W,1,05,1.3,2662.7,M,7.6,M,,*43
$GPVTG,000.0,T,006.6,M,001.23,N,0002.27,K,A*14
$GPGSA,A,3,21,14,24,29,15,,,,,,,,2.3,1.3,1.8*37
$GPGSV,2,1,05,21,65,319,41,14,26,270,33,24,52,041,47,29,26,188,25*7B
$GPGSV,2,2,05,15,14,032,19*44
$GPRMC,144152.1,A,0436.07997,N,07403.92518,W,001.26,000.0,070315,006.6,W,A*30
$GPGGA,144152.1,0436.07997,N,07403.92518,W,1,05,1.3,2662.7,M,7.6,M,,*4F
$GPVTG,000.0,T,006.6,M,001.26,N,0002.33,K,A*14
$GPRMC,144152.2,A,0436.07999,N,07403.92520,W,001.29,000.0,070315,006.6,W,A*39
$GPGGA,144152.2,0436.07999,N,07403.92520,W,1,05,1.3,2662.7,M,7.6,M,,*49
$GPVTG,000.0,T,006.6,M,001.29,N,0002.38,K,A*10
$GPRMC,144152.3,A,0436.08001,N,07403.92521,W,001.31,000.0,070315,006.6,W,A*37
$GPGGA,144152.3,0436.08001,N,07403.92521,W,1,05,1.3,2662.7,M,7.6,M,,*4E
$GPVTG,000.0,T,006.6,M,001.31,N,0002.43,K,A*15
$GPRMC,144152.4,A,0436.08015,N,07403.92533,W,001.41,000.0,070315,006.6,W,A*31
$GPGGA,144152.4,0436.08015,N,07403.92533,W,1,05,1.3,2662.7,M,7.6,M,,*4F
$GPVTG,000.0,T,006.6,M,001.41,N,0002.60,K,A*13
$GPRMC,144152.5,A,0436.08018,N,07403.92535,W,001.41,000.0,070315,006.6,W,A*3B
$GPGGA,144152.5,0436.08018,N,07403.92535,W,1,05,1.3,2662.7,M,7.6,M,,*45
$GPVTG,000.0,T,006.6,M,001.41,N,0002.61,K,A*12
$GPRMC,144152.6,A,0436.08021,N,07403.92538,W,001.37,000.0,070315,006.6,W,A*3E
$GPGGA,144152.6,0436.08021,N,07403.92538,W,1,05,1.3,2662.7,M,7.6,M,,*41
$GPVTG,000.0,T,006.6,M,001.37,N,0002.55,K,A*14
$GPRMC,144152.7,A,0436.08023,N,07403.92540,W,000.81,000.0,070315,006.6,W,A*3E
$GPGGA,144152.7,0436.08023,N,07403.92540,W,1,05,1.3,2662.7,M,7.6,M,,*4D
$GPVTG,000.0,T,006.6,M,000.81,N,0001.50,K,A*1E
$GPRMC,144152.8,A,0436.08018,N,07403.92538,W,000.82,000.0,070315,006.6,W,A*35
$GPGGA,144152.8,0436.08018,N,07403.92538,W,1,05,1.3,2662.9,M,7.6,M,,*4B
$GPVTG,000.0,T,006.6,M,000.82,N,0001.52,K,A*1F
$GPRMC,144152.9,A,0436.08018,N,07403.92538,W,000.84,000.0,070315,006.6,W,A*32
$GPGGA,144152.9,0436.08018,N,07403.92538,W,1,05,1.3,2662.9,M,7.6,M,,*4A
$GPVTG,000.0,T,006.6,M,000.84,N,0001.55,K,A*1E
$GPRMC,144153.0,A,0436.08018,N,07403.92539,W,000.88,000.0,070315,006.6,W,A*37
$GPGGA,144153.0,0436.08018,N,07403.92539,W,1,05,1.3,2662.9,M,7.6,M,,*43
$GPVTG,000.0,T,006.6,M,000.88,N,0001.63,K,A*17
$GPGSA,A,3,21,14,24,29,15,,,,,,,,2.3,1.3,1.8*37
$GPGSV,2,1,05,21,65,319,41,14,26,270,39,24,52,041,47,29,26,188,27*73
$GPGSV,2,2,05,15,14,032,22*4C
$GPRMC,144153.1,A,0436.08020,N,07403.92541,W,000.89,000.0,070315,006.6,W,A*33
$GPGGA,144153.1,0436.08020,N,07403.92541,W,1,05,1.3,2662.9,M,7.6,M,,*46
$GPVTG,000.0,T,006.6,M,000.89,N,0001.65,K,A*10
$GPRMC,144153.2,A,0436.08022,N,07403.92544,W,000.97,000.0,070315,006.6,W,A*38
$GPGGA,144153.2,0436.08022,N,07403.92544,W,1,05,1.3,2662.9,M,7.6,M,,*42
$GPVTG,000.0,T,006.6,M,000.97,N,0001.79,K,A*12
$GPRMC,144153.3,A,0436.08023,N,07403.92545,W,001.02,000.0,070315,006.6,W,A*34
$GPGGA,144153.3,0436.08023,N,07403.92545,W,1,05,1.3,2662.9,M,7.6,M,,*43
$GPVTG,000.0,T,006.6,M,001.02,N,0001.89,K,A*10
$GPRMC,144153.4,A,0436.08026,N,07403.92550,W,001.71,000.0,070315,006.6,W,A*36
$GPGGA,144153.4,0436.08026,N,07403.92550,W,1,05,1.3,2662.9,M,7.6,M,,*45
$GPVTG,000.0,T,006.6,M,001.71,N,0003.16,K,A*10
$GPRMC,144153.5,A,0436.08028,N,07403.92553,W,001.16,000.0,070315,006.6,W,A*3B
$GPGGA,144153.5,0436.08028,N,07403.92553,W,1,05,1.3,2662.9,M,7.6,M,,*49
$GPVTG,000.0,T,006.6,M,001.16,N,0002.15,K,A*13
$GPRMC,144153.6,A,0436.08029,N,07403.92555,W,001.18,000.0,070315,006.6,W,A*31
$GPGGA,144153.6,0436.08029,N,07403.92555,W,1,05,1.3,2662.9,M,7.6,M,,*4D
$GPVTG,000.0,T,006.6,M,001.18,N,0002.18,K,A*10
$GPRMC,144153.7,A,0436.08032,N,07403.92558,W,000.81,000.0,070315,006.6,W,A*36
$GPGGA,144153.7,0436.08032,N,07403.92558,W,1,05,1.3,2662.9,M,7.6,M,,*4B
$GPVTG,000.0,T,006.6,M,000.81,N,0001.51,K,A*1F
$GPRMC,144153.8,A,0436.08024,N,07403.92556,W,000.83,000.0,070315,006.6,W,A*32
$GPGGA,144153.8,0436.08024,N,07403.92556,W,1,05,1.3,2662.7,M,7.6,M,,*43
$GPVTG,000.0,T,006.6,M,000.83,N,0001.53,K,A*1F
$GPRMC,144153.9,A,0436.08022,N,07403.92556,W,000.85,000.0,070315,006.6,W,A*33
$GPGGA,144153.9,0436.08022,N,07403.92556,W,1,05,1.3,2662.7,M,7.6,M,,*44
$GPVTG,000.0,T,006.6,M,000.85,N,0001.57,K,A*1D
$GPRMC,144154.0,A,0436.08021,N,07403.92557,W,000.88,000.0,070315,006.6,W,A*32
$GPGGA,144154.0,0436.08021,N,07403.92557,W,1,05,1.3,2662.7,M,7.6,M,,*48
$GPVTG,000.0,T,006.6,M,000.88,N,0001.64,K,A*10
$GPGSA,A,3,21,14,24,29,15,,,,,,,,2.3,1.3,1.8*37
$GPGSV,2,1,05,21,65,319,40,14,26,270,37,24,52,041,47,29,26,188,28*73
$GPGSV,2,2,05,15,14,032,24*4A
$GPRMC,144154.1,A,0436.08022,N,07403.92558,W,000.91,000.0,070315,006.6,W,A*37
$GPGGA,144154.1,0436.08022,N,07403.92558,W,1,05,1.3,2662.7,M,7.6,M,,*45
$GPVTG,000.0,T,006.6,M,000.91,N,0001.69,K,A*15
$GPRMC,144154.2,A,0436.08025,N,07403.92561,W,000.92,000.0,070315,006.6,W,A*3A
$GPGGA,144154.2,0436.08025,N,07403.92561,W,1,05,1.3,2662.7,M,7.6,M,,*4B
$GPVTG,000.0,T,006.6,M,000.92,N,0001.70,K,A*1E
$GPRMC,144154.3,A,0436.08026,N,07403.92561,W,000.92,000.0,070315,006.6,W,A*38
$GPGGA,144154.3,0436.08026,N,07403.92561,W,1,05,1.3,2662.7,M,7.6,M,,*49
$GPVTG,000.0,T,006.6,M,000.92,N,0001.71,K,A*1F
$GPRMC,144154.4,A,0436.08029,N,07403.92564,W,000.97,000.0,070315,006.6,W,A*30
$GPGGA,144154.4,0436.08029,N,07403.92564,W,1,05,1.3,2662.7,M,7.6,M,,*44
$GPVTG,000.0,T,006.6,M,000.97,N,0001.79,K,A*12
$GPRMC,144154.5,A,0436.08031,N,07403.92568,W,001.06,000.0,070315,006.6,W,A*3D
$GPGGA,144154.5,0436.08031,N,07403.92568,W,1,05,1.3,2662.7,M,7.6,M,,*40
$GPVTG,000.0,T,006.6,M,001.06,N,0001.96,K,A*1A
$GPRMC,144154.6,A,0436.08032,N,07403.92571,W,001.11,354.3,070315,006.6,W,A*32
$GPGGA,144154.6,0436.08032,N,07403.92571,W,1,05,1.3,2662.7,M,7.6,M,,*48
$GPVTG,354.3,T,000.9,M,001.11,N,0002.06,K,A*1E
$GPRMC,144154.7,A,0436.08032,N,07403.92573,W,001.14,348.0,070315,006.6,W,A*3A
$GPGGA,144154.7,0436.08032,N,07403.92573,W,1,05,1.3,2662.7,M,7.6,M,,*4B
$GPVTG,348.0,T,354.5,M,001.14,N,0002.12,K,A*1E
$GPRMC,144154.8,A,0436.08016,N,07403.92585,W,001.14,341.2,070315,006.6,W,A*31
$GPGGA,144154.8,0436.08016,N,07403.92585,W,1,05,1.3,2662.6,M,7.6,M,,*4A
$GPVTG,341.2,T,347.8,M,001.14,N,0002.12,K,A*1A
$GPRMC,144154.9,A,0436.08017,N,07403.92588,W,001.09,334.3,070315,006.6,W,A*33
$GPGGA,144154.9,0436.08017,N,07403.92588,W,1,05,1.3,2662.6,M,7.6,M,,*47
$GPVTG,334.3,T,340.9,M,001.09,N,0002.01,K,A*11
$GPRMC,144155.0,A,0436.08018,N,07403.92590,W,001.06,326.3,070315,006.6,W,A*31
$GPGGA,144155.0,0436.08018,N,07403.92590,W,1,05,1.3,2662.6,M,7.6,M,,*49
$GPVTG,326.3,T,332.8,M,001.06,N,0001.97,K,A*15
$GPGSA,A,3,21,14,24,29,15,,,,,,,,2.3,1.3,1.8*37
$GPGSV,2,1,05,21,65,319,40,14,26,270,38,24,52,041,47,29,26,188,36*73
$GPGSV,2,2,05,15,14,032,27*49
$GPRMC,144155.1,A,0436.08019,N,07403.92592,W,000.99,322.5,070315,006.6,W,A*36
$GPGGA,144155.1,0436.08019,N,07403.92592,W,1,05,1.3,2662.6,M,7.6,M,,*4B
$GPVTG,322.5,T,329.1,M,000.99,N,0001.84,K,A*11
$GPRMC,144155.2,A,0436.08019,N,07403.92594,W,000.90,322.5,070315,006.6,W,A*3A
$GPGGA,144155.2,0436.08019,N,07403.92594,W,1,05,1.3,2662.6,M,7.6,M,,*4E
$GPVTG,322.5,T,329.1,M,000.90,N,0001.66,K,A*14
$GPRMC,144155.3,A,0436.08019,N,07403.92595,W,000.85,322.5,070315,006.6,W,A*3E
$GPGGA,144155.3,0436.08019,N,07403.92595,W,1,05,1.3,,M,7.6,M,,*56
$GPVTG,322.5,T,329.1,M,000.85,N,0001.58,K,A*1D
$GPRMC,144155.4,A,0436.08020,N,07403.92597,W,000.84,322.5,070315,006.6,W,A*30
$GPGGA,144155.4,0436.08020,N,07403.92597,W,1,05,1.3,2662.6,M,7.6,M,,*41
$GPVTG,322.5,T,329.1,M,000.84,N,0001.56,K,A*12
$GPRMC,144155.5,A,0436.08022,N,07403.92598,W,000.89,322.5,070315,006.6,W,A*31
$GPGGA,144155.5,0436.08022,N,07403.92598,W,1,05,1.3,2662.6,M,7.6,M,,*4D
$GPVTG,322.5,T,329.1,M,000.89,N,0001.65,K,A*1F
$GPRMC,144155.6,A,0436.08024,N,07403.92600,W,000.89,322.5,070315,006.6,W,A*36
$GPGGA,144155.6,0436.08024,N,07403.92600,W,1,05,1.3,2662.6,M,7.6,M,,*4A
$GPVTG,322.5,T,329.1,M,000.89,N,0001.65,K,A*1F
$GPRMC,144155.7,A,0436.08024,N,07403.92602,W,000.89,318.6,070315,006.6,W,A*3F
$GPGGA,144155.7,0436.08024,N,07403.92602,W,1,05,1.3,2662.6,M,7.6,M,,*49
$GPVTG,318.6,T,325.2,M,000.89,N,0001.65,K,A*1A
$GPRMC,144155.8,A,0436.07798,N,07403.92547,W,000.92,315.1,070315,006.6,W,A*3D
$GPGGA,144155.8,0436.07798,N,07403.92547,W,1,05,1.3,2663.5,M,7.6,M,,*49
$GPVTG,315.1,T,321.7,M,000.92,N,0001.71,K,A*1E
$GPRMC,144155.9,A,0436.07798,N,07403.92549,W,000.95,312.3,070315,006.6,W,A*30
$GPGGA,144155.9,0436.07798,N,07403.92549,W,1,05,1.3,2663.5,M,7.6,M,,*46
$GPVTG,312.3,T,318.9,M,000.95,N,0001.76,K,A*1F
$GPRMC,144156.0,A,0436.07800,N,07403.92553,W,001.00,309.2,070315,006.6,W,A*39
$GPGGA,144156.0,0436.07800,N,07403.92553,W,1,05,1.3,2663.5,M,7.6,M,,*49
$GPVTG,309.2,T,315.8,M,001.00,N,0001.84,K,A*18
$GPGSA,A,3,21,14,24,29,15,,,,,,,,2.3,1.3,1.8*37
$GPGSV,2,1,05,21,65,319,40,14,26,270,38,24,52,041,46,29,26,188,36*72
$GPGSV,2,2,05,15,14,032,28*46
$GPRMC,144156.1,A,0436.07802,N,07403.92555,W,001.00,307.5,070315,006.6,W,A*35
$GPGGA,144156.1,0436.07802,N,07403.92555,W,1,05,1.3,2663.5,M,7.6,M,,*4C
$GPVTG,307.5,T,314.1,M,001.00,N,0001.86,K,A*1B
$GPRMC,144156.2,A,0436.07803,N,07403.92557,W,000.97,307.6,070315,006.6,W,A*39
$GPGGA,144156.2,0436.07803,N,07403.92557,W,1,05,1.3,2663.5,M,7.6,M,,*4C
$GPVTG,307.6,T,314.2,M,000.97,N,0001.79,K,A*14
$GPRMC,144156.3,A,0436.07805,N,07403.92559,W,000.96,307.8,070315,006.6,W,A*3F
$GPGGA,144156.3,0436.07805,N,07403.92559,W,1,05,1.3,2663.5,M,7.6,M,,*45
$GPVTG,307.8,T,314.4,M,000.96,N,0001.77,K,A*13
$GPRMC,144156.4,A,0436.07806,N,07403.92560,W,000.95,307.6,070315,006.6,W,A*3C
$GPGGA,144156.4,0436.07806,N,07403.92560,W,1,05,1.3,2663.5,M,7.6,M,,*4B
$GPVTG,307.6,T,314.2,M,000.95,N,0001.76,K,A*19
$GPRMC,144156.5,A,0436.07806,N,07403.92561,W,000.96,307.6,070315,006.6,W,A*3F
$GPGGA,144156.5,0436.07806,N,07403.92561,W,1,05,1.3,2663.5,M,7.6,M,,*4B
$GPVTG,307.6,T,314.2,M,000.96,N,0001.78,K,A*14
$GPRMC,144156.6,A,0436.07809,N,07403.92566,W,000.93,307.6,070315,006.6,W,A*31
$GPGGA,144156.6,0436.07809,N,07403.92566,W,1,05,1.3,2663.5,M,7.6,M,,*40
$GPVTG,307.6,T,314.2,M,000.93,N,0001.73,K,A*1A
$GPRMC,144156.7,A,0436.07810,N,07403.92567,W,000.89,307.1,070315,006.6,W,A*35
$GPGGA,144156.7,0436.07810,N,07403.92567,W,1,05,1.3,2663.5,M,7.6,M,,*48
$GPVTG,307.1,T,313.7,M,000.89,N,0001.65,K,A*13
$GPRMC,144156.8,A,0436.07736,N,07403.92548,W,000.87,305.8,070315,006.6,W,A*39
$GPGGA,144156.8,0436.07736,N,07403.92548,W,1,05,1.3,2663.9,M,7.6,M,,*4D
$GPVTG,305.8,T,312.3,M,000.87,N,0001.60,K,A*16
$GPRMC,144156.9,A,0436.07663,N,07403.92532,W,000.87,303.8,070315,006.6,W,A*32
$GPGGA,144156.9,0436.07663,N,07403.92532,W,1,05,1.3,2663.9,M,7.6,M,,*40
$GPVTG,303.8,T,310.4,M,000.87,N,0001.60,K,A*15
$GPRMC,144157.0,A,0436.07663,N,07403.92533,W,000.88,303.3,070315,006.6,W,A*3F
$GPGGA,144157.0,0436.07663,N,07403.92533,W,1,05,1.3,2663.9,M,7.6,M,,*49
$GPVTG,303.3,T,309.9,M,000.88,N,0001.63,K,A*17
$GPGSA,A,3,21,14,24,29,15,,,,,,,,2.3,1.3,1.8*37
$GPGSV,2,1,05,21,65,319,40,14,26,270,37,24,52,041,46,29,26,188,38*73
$GPGSV,2,2,05,15,14,032,28*46
$GPRMC,144157.1,A,0436.07665,N,07403.92536,W,000.93,302.9,070315,006.6,W,A*3C
$GPGGA,144157.1,0436.07665,N,07403.92536,W,1,05,1.3,2663.9,M,7.6,M,,*4B
$GPVTG,302.9,T,309.5,M,000.93,N,0001.73,K,A*1B
$GPRMC,144157.2,A,0436.07667,N,07403.92539,W,000.95,303.7,070315,006.6,W,A*3B
$GPGGA,144157.2,0436.07667,N,07403.92539,W,1,05,1.3,2663.9,M,7.6,M,,*45
$GPVTG,303.7,T,310.3,M,000.95,N,0001.76,K,A*19
$GPRMC,144157.3,A,0436.07668,N,07403.92540,W,000.97,306.1,070315,006.6,W,A*3A
$GPGGA,144157.3,0436.07668,N,07403.92540,W,1,05,1.3,2663.9,M,7.6,M,,*45
$GPVTG,306.1,T,312.7,M,000.97,N,0001.79,K,A*11
$GPRMC,144157.4,A,0436.07668,N,07403.92540,W,000.35,306.1,070315,006.6,W,A*35
$GPGGA,144157.4,0436.07668,N,07403.92540,W,1,05,1.3,2663.9,M,7.6,M,,*42
$GPVTG,306.1,T,312.7,M,000.35,N,0000.65,K,A*15
$GPRMC,144157.5,A,0436.07672,N,07403.92542,W,000.87,306.1,070315,006.6,W,A*34
$GPGGA,144157.5,0436.07672,N,07403.92542,W,1,05,1.3,2663.9,M,7.6,M,,*4A
$GPVTG,306.1,T,312.7,M,000.87,N,0001.61,K,A*19
$GPRMC,144157.6,A,0436.07675,N,07403.92543,W,000.91,308.4,070315,006.6,W,A*3D
$GPGGA,144157.6,0436.07675,N,07403.92543,W,1,05,1.3,2663.9,M,7.6,M,,*4F
$GPVTG,308.4,T,315.0,M,000.91,N,0001.69,K,A*1D
$GPRMC,144157.7,A,0436.07677,N,07403.92544,W,000.72,308.4,070315,006.6,W,A*34
$GPGGA,144157.7,0436.07677,N,07403.92544,W,1,05,1.3,2663.9,M,7.6,M,,*4B
$GPVTG,308.4,T,315.0,M,000.72,N,0001.33,K,A*1F
$GPRMC,144157.8,A,0436.07646,N,07403.92534,W,000.73,308.4,070315,006.6,W,A*3F
$GPGGA,144157.8,0436.07646,N,07403.92534,W,1,05,1.3,2664.0,M,7.6,M,,*4F
$GPVTG,308.4,T,315.0,M,000.73,N,0001.34,K,A*19
$GPRMC,144157.9,A,0436.07637,N,07403.92531,W,000.74,308.4,070315,006.6,W,A*3A
$GPGGA,144157.9,0436.07637,N,07403.92531,W,1,05,1.3,2664.0,M,7.6,M,,*4D
$GPVTG,308.4,T,315.0,M,000.74,N,0001.37,K,A*1D
$GPRMC,144158.0,A,0436.07618,N,07403.92527,W,000.82,308.4,070315,006.6,W,A*3F
$GPGGA,144158.0,0436.07618,N,07403.92527,W,1,05,1.3,2664.0,M,7.6,M,,*41
$GPVTG,308.4,T,315.0,M,000.82,N,0001.51,K,A*14
$GPGSA,A,3,21,14,24,29,15,,,,,,,,2.3,1.3,1.8*37
$GPGSV,2,1,05,21,65,319,43,14,26,270,37,24,52,041,46,29,26,188,39*71
$GPGSV,2,2,05,15,14,032,27*49
$GPRMC,144158.1,A,0436.07618,N,07403.92529,W,000.89,305.9,070315,006.6,W,A*3B
$GPGGA,144158.1,0436.07618,N,07403.92529,W,1,05,1.3,2664.0,M,7.6,M,,*4E
$GPVTG,305.9,T,312.4,M,000.89,N,0001.66,K,A*18
$GPRMC,144158.2,A,0436.07620,N,07403.92533,W,000.89,305.9,070315,006.6,W,A*38
$GPGGA,144158.2,0436.07620,N,07403.92533,W,1,05,1.3,2664.0,M,7.6,M,,*4D
$GPVTG,305.9,T,312.4,M,000.89,N,0001.65,K,A*1B
$GPRMC,144158.3,A,0436.07621,N,07403.92535,W,000.92,306.3,070315,006.6,W,A*3D
$GPGGA,144158.3,0436.07621,N,07403.92535,W,1,05,1.3,2664.0,M,7.6,M,,*4B
$GPVTG,306.3,T,312.8,M,000.92,N,0001.70,K,A*10
$GPRMC,144158.4,A,0436.07623,N,07403.92537,W,000.90,306.3,070315,006.6,W,A*38
$GPGGA,144158.4,0436.07623,N,07403.92537,W,1,05,1.3,2664.0,M,7.6,M,,*4C
$GPVTG,306.3,T,312.9,M,000.90,N,0001.66,K,A*14
$GPRMC,144158.5,A,0436.07624,N,07403.92538,W,000.88,306.3,070315,006.6,W,A*38
$GPGGA,144158.5,0436.07624,N,07403.92538,W,1,05,1.3,2664.0,M,7.6,M,,*45
$GPVTG,306.3,T,312.9,M,000.88,N,0001.63,K,A*18
$GPRMC,144158.6,A,0436.07626,N,07403.92541,W,001.29,305.0,070315,006.6,W,A*3D
$GPGGA,144158.6,0436.07626,N,07403.92541,W,1,05,1.3,2664.0,M,7.6,M,,*4A
$GPVTG,305.0,T,311.6,M,001.29,N,0002.39,K,A*12
$GPRMC,144158.7,A,0436.07627,N,07403.92544,W,000.79,305.0,070315,006.6,W,A*3C
$GPGGA,144158.7,0436.07627,N,07403.92544,W,1,05,1.3,2664.0,M,7.6,M,,*4F
$GPVTG,305.0,T,311.6,M,000.79,N,0001.46,K,A*1D
$GPRMC,144158.8,A,0436.07544,N,07403.92519,W,000.81,305.0,070315,006.6,W,A*3A
$GPGGA,144158.8,0436.07544,N,07403.92519,W,1,05,1.3,2664.1,M,7.6,M,,*4F
$GPVTG,305.0,T,311.6,M,000.81,N,0001.49,K,A*15
$GPRMC,144158.9,A,0436.07545,N,07403.92522,W,000.89,305.0,070315,006.6,W,A*3A
$GPGGA,144158.9,0436.07545,N,07403.92522,W,1,05,1.3,2664.1,M,7.6,M,,*47
$GPVTG,305.0,T,311.6,M,000.89,N,0001.64,K,A*12
$GPRMC,144159.0,A,0436.07546,N,07403.92524,W,000.90,305.0,070315,006.6,W,A*3F
$GPGGA,144159.0,0436.07546,N,07403.92524,W,1,05,1.3,2664.1,M,7.6,M,,*4A
$GPVTG,305.0,T,311.6,M,000.90,N,0001.67,K,A*19
$GPGSA,A,3,21,14,24,29,15,,,,,,,,2.3,1.3,1.8*37
$GPGSV,2,1,05,21,65,319,43,14,26,270,37,24,52,041,46,29,26,188,42*7D
$GPGSV,2,2,05,15,14,032,26*48
$GPRMC,144159.1,A,0436.07547,N,07403.92527,W,000.97,302.8,070315,006.6,W,A*34
$GPGGA,144159.1,0436.07547,N,07403.92527,W,1,05,1.3,,M,7.6,M,,*50
$GPVTG,302.8,T,309.4,M,000.97,N,0001.79,K,A*15
$GPRMC,144159.2,A,0436.07548,N,07403.92530,W,000.69,302.8,070315,006.6,W,A*3F
$GPGGA,144159.2,0436.07548,N,07403.92530,W,1,05,1.3,2664.1,M,7.6,M,,*43
$GPVTG,302.8,T,309.4,M,000.69,N,0001.28,K,A*10
$GPRMC,144159.3,A,0436.07549,N,07403.92531,W,000.72,303.8,070315,006.6,W,A*35
$GPGGA,144159.3,0436.07549,N,07403.92531,W,1,05,1.3,2664.1,M,7.6,M,,*42
$GPVTG,303.8,T,310.4,M,000.72,N,0001.34,K,A*1E
$GPRMC,144159.4,A,0436.07551,N,07403.92533,W,000.79,304.2,070315,006.6,W,A*3F
$GPGGA,144159.4,0436.07551,N,07403.92533,W,1,05,1.3,2664.1,M,7.6,M,,*4E
$GPVTG,304.2,T,310.7,M,000.79,N,0001.47,K,A*1F
$GPRMC,144159.5,A,0436.07554,N,07403.92536,W,001.60,304.0,070315,006.6,W,A*35
$GPGGA,144159.5,0436.07554,N,07403.92536,W,1,05,1.3,2664.1,M,7.6,M,,*4F
$GPVTG,304.0,T,310.6,M,001.60,N,0002.97,K,A*1B
$GPRMC,144159.6,A,0436.07556,N,07403.92539,W,000.94,304.0,070315,006.6,W,A*31
$GPGGA,144159.6,0436.07556,N,07403.92539,W,1,05,1.3,2664.1,M,7.6,M,,*41
$GPVTG,304.0,T,310.6,M,000.94,N,0001.75,K,A*1E
$GPRMC,144159.7,A,0436.07557,N,07403.92541,W,000.92,302.6,070315,006.6,W,A*38
$GPGGA,144159.7,0436.07557,N,07403.92541,W,1,05,1.3,2664.1,M,7.6,M,,*4E
$GPVTG,302.6,T,309.2,M,000.92,N,0001.71,K,A*10
$GPRMC,144159.8,A,0436.07527,N,07403.92539,W,000.97,302.0,070315,006.6,W,A*3C
$GPGGA,144159.8,0436.07527,N,07403.92539,W,1,05,1.3,2664.4,M,7.6,M,,*4C
$GPVTG,302.0,T,308.6,M,000.97,N,0001.80,K,A*18
$GPRMC,144159.9,A,0436.07530,N,07403.92542,W,001.76,301.7,070315,006.6,W,A*3D
$GPGGA,144159.9,0436.07530,N,07403.92542,W,1,05,1.3,2664.4,M,7.6,M,,*47
$GPVTG,301.7,T,308.3,M,001.76,N,0003.26,K,A*19
$GPRMC,144200.0,A,0436.07532,N,07403.92547,W,001.82,301.3,070315,006.6,W,A*33
$GPGGA,144200.0,0436.07532,N,07403.92547,W,1,05,1.3,2664.4,M,7.6,M,,*46
$GPVTG,301.3,T,307.9,M,001.82,N,0003.37,K,A*13
$GPGSA,A,3,21,14,24,29,15,,,,,,,,2.3,1.3,1.8*37
$GPGSV,2,1,05,21,65,319,43,14,26,270,37,24,52,041,46,29,26,188,42*7D
$GPGSV,2,2,05,15,14,032,25*4B
$GPRMC,144200.1,A,0436.07535,N,07403.92552,W,001.90,303.2,070315,006.6,W,A*31
$GPGGA,144200.1,0436.07535,N,07403.92552,W,1,05,1.3,2664.4,M,7.6,M,,*44
$GPVTG,303.2,T,309.8,M,001.90,N,0003.52,K,A*1F
$PGRMT,GPS19x-HVS Software Version 2.30,,,,,,,,*6E
$GPRMC,144200.2,A,0436.07538,N,07403.92558,W,002.73,303.2,070315,006.6,W,A*3B
$GPGGA,144200.2,0436.07538,N,07403.92558,W,1,05,1.3,2664.4,M,7.6,M,,*40
$GPVTG,303.2,T,309.8,M,002.73,N,0005.06,K,A*16
$GPRMC,144200.3,A,0436.07541,N,07403.92564,W,002.31,302.0,070315,006.6,W,A*3E
$GPGGA,144200.3,0436.07541,N,07403.92564,W,1,05,1.3,2664.4,M,7.6,M,,*40
$GPVTG,302.0,T,308.6,M,002.31,N,0004.28,K,A*11
$GPRMC,144200.4,A,0436.07545,N,07403.92569,W,002.28,302.4,070315,006.6,W,A*3C
$GPGGA,144200.4,0436.07545,N,07403.92569,W,1,05,1.3,2664.4,M,7.6,M,,*4E
$GPVTG,302.4,T,309.0,M,002.28,N,0004.22,K,A*10
$GPRMC,144200.5,A,0436.07548,N,07403.92575,W,003.10,302.0,070315,006.6,W,A*33
$GPGGA,144200.5,0436.07548,N,07403.92575,W,1,05,1.3,2664.4,M,7.6,M,,*4F
$GPVTG,302.0,T,308.6,M,003.10,N,0005.73,K,A*1C
$GPRMC,144200.6,A,0436.07552,N,07403.92583,W,002.54,302.0,070315,006.6,W,A*33
$GPGGA,144200.6,0436.07552,N,07403.92583,W,1,05,1.3,2664.4,M,7.6,M,,*4E
$GPVTG,302.0,T,308.6,M,002.54,N,0004.71,K,A*1E
$GPRMC,144200.7,A,0436.07555,N,07403.92588,W,002.02,303.3,070315,006.6,W,A*3F
$GPGGA,144200.7,0436.07555,N,07403.92588,W,1,05,1.3,2664.4,M,7.6,M,,*43
$GPVTG,303.3,T,309.9,M,002.02,N,0003.74,K,A*13
$GPRMC,144200.8,A,0436.07539,N,07403.92588,W,001.58,303.4,070315,006.6,W,A*31
$GPGGA,144200.8,0436.07539,N,07403.92588,W,1,05,1.3,2664.9,M,7.6,M,,*4B
$GPVTG,303.4,T,309.9,M,001.58,N,0002.92,K,A*11
$GPRMC,144200.9,A,0436.07541,N,07403.92589,W,001.57,303.5,070315,006.6,W,A*30
$GPGGA,144200.9,0436.07541,N,07403.92589,W,1,05,1.3,2664.9,M,7.6,M,,*44
$GPVTG,303.5,T,310.1,M,001.57,N,0002.90,K,A*1D
$GPRMC,144201.0,A,0436.07544,N,07403.92595,W,002.22,303.7,070315,006.6,W,A*33
$GPGGA,144201.0,0436.07544,N,07403.92595,W,1,05,1.3,2664.9,M,7.6,M,,*44
$GPVTG,303.7,T,310.2,M,002.22,N,0004.11,K,A*12
$GPGSA,A,3,21,14,24,29,15,,,,,,,,2.3,1.3,1.8*37
$GPGSV,2,1,05,21,65,319,43,14,26,270,36,24,52,041,45,29,26,188,45*78
$GPGSV,2,2,05,15,14,032,24*4A
$GPRMC,144201.1,A,0436.07546,N,07403.92602,W,002.91,303.9,070315,006.6,W,A*3B
$GPGGA,144201.1,0436.07546,N,07403.92602,W,1,05,1.3,2664.9,M,7.6,M,,*4A
$GPVTG,303.9,T,310.5,M,002.91,N,0005.38,K,A*19
$GPRMC,144201.2,A,0436.07549,N,07403.92609,W,002.48,304.0,070315,006.6,W,A*36
$GPGGA,144201.2,0436.07549,N,07403.92609,W,1,05,1.3,2664.9,M,7.6,M,,*4D
$GPVTG,304.0,T,310.6,M,002.48,N,0004.59,K,A*16
$GPRMC,144201.3,A,0436.07551,N,07403.92615,W,002.45,304.0,070315,006.6,W,A*3E
$GPGGA,144201.3,0436.07551,N,07403.92615,W,1,05,1.3,2664.9,M,7.6,M,,*48
$GPVTG,304.0,T,310.6,M,002.45,N,0004.53,K,A*11
$GPRMC,144201.4,A,0436.07552,N,07403.92618,W,002.43,302.4,070315,006.6,W,A*33
$GPGGA,144201.4,0436.07552,N,07403.92618,W,1,05,1.3,2664.9,M,7.6,M,,*41
$GPVTG,302.4,T,309.0,M,002.43,N,0004.49,K,A*10
$GPRMC,144201.5,A,0436.07556,N,07403.92627,W,002.37,301.4,070315,006.6,W,A*3A
$GPGGA,144201.5,0436.07556,N,07403.92627,W,1,05,1.3,2664.9,M,7.6,M,,*48
$GPVTG,301.4,T,308.0,M,002.37,N,0004.39,K,A*16
$GPRMC,144201.6,A,0436.07558,N,07403.92633,W,002.40,299.9,070315,006.6,W,A*3F
$GPGGA,144201.6,0436.07558,N,07403.92633,W,1,05,1.3,2664.9,M,7.6,M,,*40
$GPVTG,299.9,T,306.5,M,002.40,N,0004.45,K,A*1B
$GPRMC,144201.7,A,0436.07561,N,07403.92640,W,002.51,298.9,070315,006.6,W,A*31
$GPGGA,144201.7,0436.07561,N,07403.92640,W,1,05,1.3,2664.9,M,7.6,M,,*4F
$GPVTG,298.9,T,305.5,M,002.51,N,0004.64,K,A*1A
$GPRMC,144201.8,A,0436.07523,N,07403.92639,W,002.17,298.0,070315,006.6,W,A*3D
$GPGGA,144201.8,0436.07523,N,07403.92639,W,1,05,1.3,2665.2,M,7.6,M,,*42
$GPVTG,298.0,T,304.6,M,002.17,N,0004.02,K,A*13
$GPRMC,144201.9,A,0436.07525,N,07403.92643,W,001.09,297.5,070315,006.6,W,A*31
$GPGGA,144201.9,0436.07525,N,07403.92643,W,1,05,1.3,2665.2,M,7.6,M,,*48
$GPVTG,297.5,T,304.1,M,001.09,N,0002.02,K,A*14
$GPRMC,144202.0,A,0436.07526,N,07403.92647,W,002.37,296.9,070315,006.6,W,A*3F
$GPGGA,144202.0,0436.07526,N,07403.92647,W,1,05,1.3,2665.2,M,7.6,M,,*45
$GPVTG,296.9,T,303.5,M,002.37,N,0004.39,K,A*1A
$GPGSA,A,3,21,14,24,29,15,,,,,,,,2.3,1.3,1.8*37
$GPGSV,2,1,05,21,65,319,44,14,26,270,35,24,52,041,44,29,26,188,46*7E
$GPGSV,2,2,05,15,14,032,25*4B
$GPRMC,144202.1,A,0436.07528,N,07403.92653,W,001.38,296.2,070315,006.6,W,A*32
$GPGGA,144202.1,0436.07528,N,07403.92653,W,1,05,1.3,2665.2,M,7.6,M,,*4F
$GPVTG,296.2,T,302.8,M,001.38,N,0002.56,K,A*1E
$GPRMC,144202.2,A,0436.07530,N,07403.92660,W,001.60,295.4,070315,006.6,W,A*30
$GPGGA,144202.2,0436.07530,N,07403.92660,W,1,05,1.3,2665.2,M,7.6,M,,*45
$GPVTG,295.4,T,302.0,M,001.60,N,0002.96,K,A*12
$GPRMC,144202.3,A,0436.07531,N,07403.92665,W,001.81,294.6,070315,006.6,W,A*39
$GPGGA,144202.3,0436.07531,N,07403.92665,W,1,05,1.3,2665.2,M,7.6,M,,*40
$GPVTG,294.6,T,301.2,M,001.81,N,0003.35,K,A*17
$GPRMC,144202.4,A,0436.07532,N,07403.92668,W,001.75,294.4,070315,006.6,W,A*39
$GPGGA,144202.4,0436.07532,N,07403.92668,W,1,04,1.3,,M,7.6,M,,*53
$GPVTG,294.4,T,301.0,M,001.75,N,0003.24,K,A*1C
$GPRMC,144202.5,A,0436.07536,N,07403.92674,W,001.76,294.6,070315,006.6,W,A*30
$GPGGA,144202.5,0436.07536,N,07403.92674,W,1,04,1.3,2665.2,M,7.6,M,,*40
$GPVTG,294.6,T,301.2,M,001.76,N,0003.27,K,A*1C
$GPRMC,144202.6,A,0436.07538,N,07403.92678,W,001.67,295.4,070315,006.6,W,A*32
$GPGGA,144202.6,0436.07538,N,07403.92678,W,1,04,1.3,2665.2,M,7.6,M,,*41
$GPVTG,295.4,T,301.9,M,001.67,N,0003.09,K,A*18
$GPRMC,144202.7,A,0436.07541,N,07403.92682,W,001.97,295.7,070315,006.6,W,A*34
$GPGGA,144202.7,0436.07541,N,07403.92682,W,1,04,1.3,2665.2,M,7.6,M,,*4B
$GPVTG,295.7,T,302.3,M,001.97,N,0003.65,K,A*17
$GPRMC,144202.8,A,0436.07539,N,07403.92677,W,001.85,295.9,070315,006.6,W,A*33
$GPGGA,144202.8,0436.07539,N,07403.92677,W,1,04,1.3,2664.9,M,7.6,M,,*4B
$GPVTG,295.9,T,302.4,M,001.85,N,0003.42,K,A*18
$GPRMC,144202.9,A,0436.07541,N,07403.92680,W,001.64,295.6,070315,006.6,W,A*35
$GPGGA,144202.9,0436.07541,N,07403.92680,W,1,04,1.3,2664.9,M,7.6,M,,*4D
$GPVTG,295.6,T,302.2,M,001.64,N,0003.04,K,A*1C
$GPRMC,144203.0,A,0436.07544,N,07403.92683,W,001.79,295.5,070315,006.6,W,A*34
$GPGGA,144203.0,0436.07544,N,07403.92683,W,1,04,1.3,2664.9,M,7.6,M,,*43
$GPVTG,295.5,T,302.0,M,001.79,N,0003.32,K,A*14
$GPGSA,A,3,21,14,24,29,,,,,,,,,2.3,1.3,1.8*33
$GPGSV,2,1,05,21,65,319,44,14,26,270,35,24,52,041,45,29,26,188,46*7F
$GPGSV,2,2,05,22,00,000,25*4B
$GPRMC,144203.1,A,0436.07546,N,07403.92687,W,000.99,295.3,070315,006.6,W,A*3A
$GPGGA,144203.1,0436.07546,N,07403.92687,W,1,04,1.3,2664.9,M,7.6,M,,*44
$GPVTG,295.3,T,301.9,M,000.99,N,0001.84,K,A*18
$GPRMC,144203.2,A,0436.07548,N,07403.92690,W,001.04,295.2,070315,006.6,W,A*35
$GPGGA,144203.2,0436.07548,N,07403.92690,W,1,04,1.3,2664.9,M,7.6,M,,*4F
$GPVTG,295.2,T,301.8,M,001.04,N,0001.93,K,A*1B
$GPRMC,144203.3,A,0436.07549,N,07403.92692,W,000.55,295.2,070315,006.6,W,A*32
$GPGGA,144203.3,0436.07549,N,07403.92692,W,1,04,1.3,2664.9,M,7.6,M,,*4D
$GPVTG,295.2,T,301.8,M,000.55,N,0001.01,K,A*15
$GPRMC,144203.4,A,0436.07549,N,07403.92694,W,000.58,295.2,070315,006.6,W,A*3E
$GPGGA,144203.4,0436.07549,N,07403.92694,W,1,04,1.3,2664.9,M,7.6,M,,*4C
$GPVTG,295.2,T,301.8,M,000.58,N,0001.07,K,A*1E
$GPRMC,144203.5,A,0436.07550,N,07403.92697,W,001.81,295.4,070315,006.6,W,A*37
$GPGGA,144203.5,0436.07550,N,07403.92697,W,1,04,1.3,2664.9,M,7.6,M,,*46
$GPVTG,295.4,T,302.0,M,001.81,N,0003.34,K,A*14
$GPRMC,144203.6,A,0436.07551,N,07403.92701,W,000.87,295.4,070315,006.6,W,A*3C
$GPGGA,144203.6,0436.07551,N,07403.92701,W,1,04,1.3,2664.9,M,7.6,M,,*4A
$GPVTG,295.4,T,302.0,M,000.87,N,0001.61,K,A*11
$GPRMC,144203.7,A,0436.07552,N,07403.92701,W,000.87,295.4,070315,006.6,W,A*3E
$GPGGA,144203.7,0436.07552,N,07403.92701,W,1,04,1.3,2664.9,M,7.6,M,,*48
$GPVTG,295.4,T,302.0,M,000.87,N,0001.61,K,A*11
$GPRMC,144203.8,A,0436.07561,N,07403.92703,W,001.36,295.4,070315,006.6,W,A*38
$GPGGA,144203.8,0436.07561,N,07403.92703,W,1,04,1.3,2664.7,M,7.6,M,,*4B
$GPVTG,295.4,T,302.0,M,001.36,N,0002.51,K,A*1A
$GPRMC,144203.9,A,0436.07562,N,07403.92706,W,000.79,295.4,070315,006.6,W,A*35
$GPGGA,144203.9,0436.07562,N,07403.92706,W,1,04,1.3,2664.7,M,7.6,M,,*4C
$GPVTG,295.4,T,302.0,M,000.79,N,0001.46,K,A*15
$GPRMC,144204.0,A,0436.07563,N,07403.92709,W,001.28,295.3,070315,006.6,W,A*37
$GPGGA,144204.0,0436.07563,N,07403.92709,W,1,04,1.3,2664.7,M,7.6,M,,*4C
$GPVTG,295.3,T,301.9,M,001.28,N,0002.37,K,A*18
$GPGSA,A,3,21,14,24,29,,,,,,,,,2.3,1.3,1.8*33
$GPGSV,2,1,05,21,65,319,44,14,26,270,34,24,52,041,44,29,26,188,46*7F
$GPGSV,2,2,05,22,00,000,24*4A
$GPRMC,144204.1,A,0436.07564,N,07403.92711,W,000.81,295.3,070315,006.6,W,A*3A
$GPGGA,144204.1,0436.07564,N,07403.92711,W,1,04,1.3,2664.7,M,7.6,M,,*43
$GPVTG,295.3,T,301.9,M,000.81,N,0001.49,K,A*10
$GPRMC,144204.2,A,0436.07564,N,07403.92714,W,000.83,295.3,070315,006.6,W,A*3E
$GPGGA,144204.2,0436.07564,N,07403.92714,W,1,04,1.3,2664.7,M,7.6,M,,*45
$GPVTG,295.3,T,301.9,M,000.83,N,0001.54,K,A*1E
$GPRMC,144204.3,A,0436.07565,N,07403.92716,W,000.89,293.7,070315,006.6,W,A*34
$GPGGA,144204.3,0436.07565,N,07403.92716,W,1,04,1.3,2664.7,M,7.6,M,,*47
$GPVTG,293.7,T,300.3,M,000.89,N,0001.64,K,A*1E
$GPRMC,144204.4,A,0436.07565,N,07403.92720,W,000.99,291.5,070315,006.6,W,A*37
$GPGGA,144204.4,0436.07565,N,07403.92720,W,1,04,1.3,2664.7,M,7.6,M,,*45
$GPVTG,291.5,T,298.1,M,000.99,N,0001.84,K,A*13
$GPRMC,144204.5,A,0436.07566,N,07403.92723,W,000.97,291.5,070315,006.6,W,A*38
$GPGGA,144204.5,0436.07566,N,07403.92723,W,1,04,1.3,2664.7,M,7.6,M,,*44
$GPVTG,291.5,T,298.1,M,000.97,N,0001.80,K,A*19
$GPRMC,144204.6,A,0436.07568,N,07403.92725,W,000.94,293.0,070315,006.6,W,A*37
$GPGGA,144204.6,0436.07568,N,07403.92725,W,1,04,1.3,2664.7,M,7.6,M,,*4F
$GPVTG,293.0,T,299.6,M,000.94,N,0001.75,K,A*11
$GPRMC,144204.7,A,0436.07569,N,07403.92727,W,001.31,292.0,070315,006.6,W,A*3A
$GPGGA,144204.7,0436.07569,N,07403.92727,W,1,04,1.3,2664.7,M,7.6,M,,*4D
$GPVTG,292.0,T,298.6,M,001.31,N,0002.43,K,A*19
$GPRMC,144204.8,A,0436.07579,N,07403.92721,W,000.72,292.0,070315,006.6,W,A*34
$GPGGA,144204.8,0436.07579,N,07403.92721,W,1,04,1.3,2664.5,M,7.6,M,,*47
$GPVTG,292.0,T,298.6,M,000.72,N,0001.33,K,A*1B
$GPRMC,144204.9,A,0436.07581,N,07403.92723,W,000.78,292.0,070315,006.6,W,A*3A
$GPGGA,144204.9,0436.07581,N,07403.92723,W,1,04,1.3,2664.5,M,7.6,M,,*43
$GPVTG,292.0,T,298.6,M,000.78,N,0001.44,K,A*11
$GPRMC,144205.0,A,0436.07581,N,07403.92724,W,000.83,292.5,070315,006.6,W,A*34
$GPGGA,144205.0,0436.07581,N,07403.92724,W,1,04,1.3,2664.5,M,7.6,M,,*4C
$GPVTG,292.5,T,299.1,M,000.83,N,0001.54,K,A*17
$GPGSA,A,3,21,14,24,29,,,,,,,,,2.3,1.3,1.8*33
$GPGSV,2,1,05,21,65,319,44,14,26,270,34,24,51,041,43,29,26,188,46*7B
$GPGSV,2,2,05,22,00,000,24*4A
$GPRMC,144205.1,A,0436.07583,N,07403.92728,W,000.82,292.9,070315,006.6,W,A*36
$GPGGA,144205.1,0436.07583,N,07403.92728,W,1,04,1.3,2664.5,M,7.6,M,,*43
$GPVTG,292.9,T,299.5,M,000.82,N,0001.52,K,A*18
$GPRMC,144205.2,A,0436.07584,N,07403.92729,W,000.82,293.2,070315,006.6,W,A*39
$GPGGA,144205.2,0436.07584,N,07403.92729,W,1,04,1.3,2664.5,M,7.6,M,,*46
$GPVTG,293.2,T,299.7,M,000.82,N,0001.52,K,A*10
$GPRMC,144205.3,A,0436.07585,N,07403.92732,W,000.80,293.2,070315,006.6,W,A*31
$GPGGA,144205.3,0436.07585,N,07403.92732,W,1,04,1.3,2664.5,M,7.6,M,,*4C
$GPVTG,293.2,T,299.7,M,000.80,N,0001.48,K,A*19
$GPRMC,144205.4,A,0436.07585,N,07403.92734,W,000.84,291.5,070315,006.6,W,A*31
$GPGGA,144205.4,0436.07585,N,07403.92734,W,1,04,1.3,2664.5,M,7.6,M,,*4D
$GPVTG,291.5,T,298.1,M,000.84,N,0001.56,K,A*10
$GPRMC,144205.5,A,0436.07585,N,07403.92735,W,000.88,290.3,070315,006.6,W,A*3A
$GPGGA,144205.5,0436.07585,N,07403.92735,W,1,04,1.3,2664.5,M,7.6,M,,*4D
$GPVTG,290.3,T,296.9,M,000.88,N,0001.64,K,A*1C
$GPRMC,144205.6,A,0436.07586,N,07403.92740,W,000.97,289.3,070315,006.6,W,A*3E
$GPGGA,144205.6,0436.07586,N,07403.92740,W,1,04,1.3,2664.5,M,7.6,M,,*4F
$GPVTG,289.3,T,295.9,M,000.97,N,0001.79,K,A*15
$GPRMC,144205.7,A,0436.07587,N,07403.92743,W,000.96,289.3,070315,006.6,W,A*3C
$GPGGA,144205.7,0436.07587,N,07403.92743,W,1,04,1.3,2664.5,M,7.6,M,,*4C
$GPVTG,289.3,T,295.9,M,000.96,N,0001.78,K,A*15
$GPRMC,144205.8,A,0436.07585,N,07403.92740,W,000.55,289.3,070315,006.6,W,A*3D
$GPGGA,144205.8,0436.07585,N,07403.92740,W,1,04,1.3,2664.8,M,7.6,M,,*4F
$GPVTG,289.3,T,295.9,M,000.55,N,0001.03,K,A*16
$GPRMC,144205.9,A,0436.07587,N,07403.92742,W,001.28,288.5,070315,006.6,W,A*30
$GPGGA,144205.9,0436.07587,N,07403.92742,W,1,04,1.3,2664.8,M,7.6,M,,*4E
$GPVTG,288.5,T,295.1,M,001.28,N,0002.38,K,A*19
$GPRMC,144206.0,A,0436.07588,N,07403.92745,W,000.73,288.5,070315,006.6,W,A*3D
$GPGGA,144206.0,0436.07588,N,07403.92745,W,1,04,1.3,2664.7,M,7.6,M,,*43
$GPVTG,288.5,T,295.1,M,000.73,N,0001.35,K,A*18
$GPGSA,A,3,21,14,24,29,,,,,,,,,2.3,1.3,1.8*33
$GPGSV,2,1,05,21,65,319,44,14,26,270,34,24,51,041,44,29,26,188,46*7C
$GPGSV,2,2,05,22,00,000,25*4B
$GPRMC,144206.1,A,0436.07589,N,07403.92748,W,001.65,286.7,070315,006.6,W,A*3A
$GPGGA,144206.1,0436.07589,N,07403.92748,W,1,04,1.3,2664.7,M,7.6,M,,*4E
$GPVTG,286.7,T,293.3,M,001.65,N,0003.05,K,A*17
$GPRMC,144206.2,A,0436.07590,N,07403.92751,W,000.95,286.7,070315,006.6,W,A*37
$GPGGA,144206.2,0436.07590,N,07403.92751,W,1,04,1.3,2664.7,M,7.6,M,,*4D
$GPVTG,286.7,T,293.3,M,000.95,N,0001.76,K,A*1F
$GPRMC,144206.3,A,0436.07592,N,07403.92754,W,001.38,285.2,070315,006.6,W,A*31
$GPGGA,144206.3,0436.07592,N,07403.92754,W,1,04,1.3,2664.7,M,7.6,M,,*4B
$GPVTG,285.2,T,291.7,M,001.38,N,0002.56,K,A*18
$GPRMC,144206.4,A,0436.07593,N,07403.92757,W,001.32,286.3,070315,006.6,W,A*3C
$GPGGA,144206.4,0436.07593,N,07403.92757,W,1,04,1.3,2664.7,M,7.6,M,,*4E
$GPVTG,286.3,T,292.8,M,001.32,N,0002.45,K,A*1E
$GPRMC,144206.5,A,0436.07594,N,07403.92762,W,002.36,287.1,070315,006.6,W,A*38
$GPGGA,144206.5,0436.07594,N,07403.92762,W,1,04,1.3,2664.7,M,7.6,M,,*4E
$GPVTG,287.1,T,293.7,M,002.36,N,0004.37,K,A*17
$GPRMC,144206.6,A,0436.07595,N,07403.92766,W,001.04,287.7,070315,006.6,W,A*3A
$GPGGA,144206.6,0436.07595,N,07403.92766,W,1,04,1.3,2664.7,M,7.6,M,,*48
$GPVTG,287.7,T,294.3,M,001.04,N,0001.92,K,A*1A
$GPRMC,144206.7,A,0436.07597,N,07403.92769,W,001.73,287.5,070315,006.6,W,A*34
$GPGGA,144206.7,0436.07597,N,07403.92769,W,1,04,1.3,2664.7,M,7.6,M,,*44
$GPVTG,287.5,T,294.1,M,001.73,N,0003.21,K,A*10
$GPRMC,144206.8,A,0436.07593,N,07403.92768,W,001.23,288.5,070315,006.6,W,A*34
$GPGGA,144206.8,0436.07593,N,07403.92768,W,1,04,1.3,2664.6,M,7.6,M,,*4F
$GPVTG,288.5,T,295.1,M,001.23,N,0002.27,K,A*1C
$GPRMC,144206.9,A,0436.07592,N,07403.92769,W,001.34,289.8,070315,006.6,W,A*3F
$GPGGA,144206.9,0436.07592,N,07403.92769,W,1,04,1.3,,M,7.6,M,,*50
$GPVTG,289.8,T,296.4,M,001.34,N,0002.49,K,A*18
$GPRMC,144207.0,A,0436.07593,N,07403.92776,W,001.54,290.8,070315,006.6,W,A*36
$GPGGA,144207.0,0436.07593,N,07403.92776,W,1,04,1.3,2664.6,M,7.6,M,,*49
$GPVTG,290.8,T,297.4,M,001.54,N,0002.84,K,A*16
$GPGSA,A,3,21,14,24,29,,,,,,,,,2.3,1.3,1.8*33
$GPGSV,2,1,05,21,65,319,44,14,26,270,35,24,51,041,45,29,26,188,47*7D
$GPGSV,2,2,05,22,00,000,25*4B
$GPRMC,144207.1,A,0436.07596,N,07403.92781,W,001.72,291.8,070315,006.6,W,A*3F
$GPGGA,144207.1,0436.07596,N,07403.92781,W,1,04,1.3,2664.6,M,7.6,M,,*45
$GPVTG,291.8,T,298.4,M,001.72,N,0003.18,K,A*18
$GPRMC,144207.2,A,0436.07597,N,07403.92783,W,001.81,293.2,070315,006.6,W,A*3B
$GPGGA,144207.2,0436.07597,N,07403.92783,W,1,04,1.3,2664.6,M,7.6,M,,*45
$GPVTG,293.2,T,299.8,M,001.81,N,0003.36,K,A*1D
$GPRMC,144207.3,A,0436.07602,N,07403.92791,W,001.91,294.8,070315,006.6,W,A*3A
$GPGGA,144207.3,0436.07602,N,07403.92791,W,1,04,1.3,2664.6,M,7.6,M,,*48
$GPVTG,294.8,T,301.4,M,001.91,N,0003.55,K,A*18
$GPRMC,144207.4,A,0436.07605,N,07403.92795,W,002.04,296.1,070315,006.6,W,A*3A
$GPGGA,144207.4,0436.07605,N,07403.92795,W,1,04,1.3,2664.6,M,7.6,M,,*4C
$GPVTG,296.1,T,302.7,M,002.04,N,0003.78,K,A*13
$GPRMC,144207.5,A,0436.07607,N,07403.92801,W,002.45,296.7,070315,006.6,W,A*38
$GPGGA,144207.5,0436.07607,N,07403.92801,W,1,04,1.3,2664.6,M,7.6,M,,*4D
$GPVTG,296.7,T,303.2,M,002.45,N,0004.55,K,A*1C
$GPRMC,144207.6,A,0436.07609,N,07403.92804,W,002.43,297.6,070315,006.6,W,A*36
$GPGGA,144207.6,0436.07609,N,07403.92804,W,1,04,1.3,,M,7.6,M,,*5B
$GPVTG,297.6,T,304.2,M,002.43,N,0004.50,K,A*18
$GPRMC,144207.7,A,0436.07613,N,07403.92812,W,001.45,298.6,070315,006.6,W,A*31
$GPGGA,144207.7,0436.07613,N,07403.92812,W,1,04,1.3,2664.6,M,7.6,M,,*48
$GPVTG,298.6,T,305.2,M,001.45,N,0002.69,K,A*1F
$GPRMC,144207.8,A,0436.07618,N,07403.92814,W,002.69,298.6,070315,006.6,W,A*3E
$GPGGA,144207.8,0436.07618,N,07403.92814,W,1,04,1.3,2664.3,M,7.6,M,,*4F
$GPVTG,298.6,T,305.2,M,002.69,N,0004.97,K,A*15
$GPRMC,144207.9,A,0436.07622,N,07403.92820,W,001.92,298.2,070315,006.6,W,A*32
$GPGGA,144207.9,0436.07622,N,07403.92820,W,1,04,1.3,2664.3,M,7.6,M,,*40
$GPVTG,298.2,T,304.8,M,001.92,N,0003.55,K,A*14
$GPRMC,144208.0,A,0436.07625,N,07403.92825,W,002.33,298.2,070315,006.6,W,A*3E
$GPGGA,144208.0,0436.07625,N,07403.92825,W,1,04,1.3,2664.4,M,7.6,M,,*43
$GPVTG,298.2,T,304.8,M,002.33,N,0004.31,K,A*19
$GPGSA,A,3,21,14,24,29,,,,,,,,,2.3,1.3,1.8*33
$GPGSV,2,1,05,21,65,319,45,14,26,270,36,24,51,041,45,29,26,188,47*7F
$GPGSV,2,2,05,22,00,000,25*4B
$GPRMC,144208.1,A,0436.07628,N,07403.92828,W,001.19,298.1,070315,006.6,W,A*37
$GPGGA,144208.1,0436.07628,N,07403.92828,W,1,04,1.3,2664.4,M,7.6,M,,*42
$GPVTG,298.1,T,304.7,M,001.19,N,0002.19,K,A*12
$GPRMC,144208.2,A,0436.07630,N,07403.92833,W,002.80,297.9,070315,006.6,W,A*33
$GPGGA,144208.2,0436.07630,N,07403.92833,W,1,04,1.3,2664.4,M,7.6,M,,*42
$GPVTG,297.9,T,304.5,M,002.80,N,0005.19,K,A*13
$GPRMC,144208.3,A,0436.07632,N,07403.92838,W,000.97,296.2,070315,006.6,W,A*35
$GPGGA,144208.3,0436.07632,N,07403.92838,W,1,04,1.3,2664.4,M,7.6,M,,*4A
$GPVTG,296.2,T,302.8,M,000.97,N,0001.79,K,A*14
$GPRMC,144208.4,A,0436.07633,N,07403.92842,W,002.11,294.6,070315,006.6,W,A*34
$GPGGA,144208.4,0436.07633,N,07403.92842,W,1,04,1.3,2664.4,M,7.6,M,,*41
$GPVTG,294.6,T,301.2,M,002.11,N,0003.92,K,A*10
$GPRMC,144208.5,A,0436.07634,N,07403.92846,W,001.20,294.4,070315,006.6,W,A*35
$GPGGA,144208.5,0436.07634,N,07403.92846,W,1,04,1.3,2664.4,M,7.6,M,,*43
$GPVTG,294.4,T,300.9,M,001.20,N,0002.22,K,A*13
$GPRMC,144208.6,A,0436.07636,N,07403.92850,W,001.51,294.0,070315,006.6,W,A*31
$GPGGA,144208.6,0436.07636,N,07403.92850,W,1,04,1.3,2664.4,M,7.6,M,,*45
$GPVTG,294.0,T,300.5,M,001.51,N,0002.79,K,A*13
$GPRMC,144208.7,A,0436.07637,N,07403.92853,W,001.08,294.3,070315,006.6,W,A*3D
$GPGGA,144208.7,0436.07637,N,07403.92853,W,1,04,1.3,2664.4,M,7.6,M,,*46
$GPVTG,294.3,T,300.9,M,001.08,N,0002.01,K,A*1F
$GPRMC,144208.8,A,0436.07645,N,07403.92855,W,001.62,293.6,070315,006.6,W,A*3F
$GPGGA,144208.8,0436.07645,N,07403.92855,W,1,04,1.3,2664.3,M,7.6,M,,*4D
$GPVTG,293.6,T,300.2,M,001.62,N,0002.99,K,A*1B
$GPRMC,144208.9,A,0436.07646,N,07403.92858,W,000.78,293.1,070315,006.6,W,A*3D
$GPGGA,144208.9,0436.07646,N,07403.92858,W,1,04,1.3,2664.3,M,7.6,M,,*42
$GPVTG,293.1,T,299.7,M,000.78,N,0001.44,K,A*11
$GPRMC,144209.0,A,0436.07647,N,07403.92860,W,000.98,293.1,070315,006.6,W,A*31
$GPGGA,144209.0,0436.07647,N,07403.92860,W,1,04,1.3,2664.3,M,7.6,M,,*40
$GPVTG,293.1,T,299.7,M,000.98,N,0001.82,K,A*15
$GPGSA,A,3,21,14,24,29,,,,,,,,,2.3,1.3,1.8*33
$GPGSV,2,1,05,21,65,319,45,14,26,270,36,24,51,041,44,29,26,188,47*7E
$GPGSV,2,2,05,22,00,000,25*4B
$GPRMC,144209.1,A,0436.07648,N,07403.92861,W,001.15,292.1,070315,006.6,W,A*3B
$GPGGA,144209.1,0436.07648,N,07403.92861,W,1,04,1.3,2664.3,M,7.6,M,,*4F
$GPVTG,292.1,T,298.7,M,001.15,N,0002.13,K,A*1A
$GPRMC,144209.2,A,0436.07649,N,07403.92867,W,003.00,291.5,070315,006.6,W,A*3E
$GPGGA,144209.2,0436.07649,N,07403.92867,W,1,04,1.3,2664.3,M,7.6,M,,*4B
$GPVTG,291.5,T,298.1,M,003.00,N,0005.55,K,A*18
$GPRMC,144209.3,A,0436.07649,N,07403.92875,W,002.55,292.1,070315,006.6,W,A*3A
$GPGGA,144209.3,0436.07649,N,07403.92875,W,1,04,1.3,2664.3,M,7.6,M,,*49
$GPVTG,292.1,T,298.7,M,002.55,N,0004.72,K,A*1C
$GPRMC,144209.4,A,0436.07650,N,07403.92881,W,002.05,293.0,070315,006.6,W,A*3B
$GPGGA,144209.4,0436.07650,N,07403.92881,W,1,04,1.3,2664.3,M,7.6,M,,*4D
$GPVTG,293.0,T,299.6,M,002.05,N,0003.80,K,A*13
$GPRMC,144209.5,A,0436.07650,N,07403.92885,W,000.60,293.0,070315,006.6,W,A*3F
$GPGGA,144209.5,0436.07650,N,07403.92885,W,1,04,1.3,2664.3,M,7.6,M,,*48
$GPVTG,293.0,T,299.6,M,000.60,N,0001.11,K,A*18
$GPRMC,144209.6,A,0436.07650,N,07403.92887,W,000.64,293.0,070315,006.6,W,A*3A
$GPGGA,144209.6,0436.07650,N,07403.92887,W,1,04,1.3,,M,7.6,M,,*52
$GPVTG,293.0,T,299.6,M,000.64,N,0001.19,K,A*14
$GPRMC,144209.7,A,0436.07651,N,07403.92889,W,000.74,292.5,070315,006.6,W,A*31
$GPGGA,144209.7,0436.07651,N,07403.92889,W,1,04,1.3,2664.3,M,7.6,M,,*47
$GPVTG,292.5,T,299.0,M,000.74,N,0001.37,K,A*1B
$GPRMC,144209.8,A,0436.07648,N,07403.92890,W,000.81,292.5,070315,006.6,W,A*34
$GPGGA,144209.8,0436.07648,N,07403.92890,W,1,04,1.3,2664.4,M,7.6,M,,*4F
$GPVTG,292.5,T,299.0,M,000.81,N,0001.51,K,A*11
$GPRMC,144209.9,A,0436.07648,N,07403.92891,W,000.87,292.5,070315,006.6,W,A*32
$GPGGA,144209.9,0436.07648,N,07403.92891,W,1,04,1.3,2664.4,M,7.6,M,,*4F
$GPVTG,292.5,T,299.0,M,000.87,N,0001.61,K,A*14
$GPRMC,144210.0,A,0436.07648,N,07403.92897,W,001.87,291.8,070315,006.6,W,A*3A
$GPGGA,144210.0,0436.07648,N,07403.92897,W,1,04,1.3,2664.4,M,7.6,M,,*48
$GPVTG,291.8,T,298.4,M,001.87,N,0003.47,K,A*18
$GPGSA,A,3,21,14,24,29,,,,,,,,,2.3,1.3,1.8*33
$GPGSV,2,1,05,21,65,319,46,14,26,270,38,24,51,041,42,29,26,188,47*75
$GPGSV,2,2,05,22,00,000,25*4B
$GPRMC,144210.1,A,0436.07648,N,07403.92897,W,000.27,291.8,070315,006.6,W,A*30
$GPGGA,144210.1,0436.07648,N,07403.92897,W,1,04,1.3,2664.4,M,7.6,M,,*49
$GPVTG,291.8,T,298.4,M,000.27,N,0000.49,K,A*1E
$GPRMC,144210.2,A,0436.07648,N,07403.92897,W,001.18,291.8,070315,006.6,W,A*3E
$GPGGA,144210.2,0436.07648,N,07403.92897,W,1,04,1.3,2664.4,M,7.6,M,,*4A
$GPVTG,291.8,T,298.4,M,001.18,N,0002.18,K,A*15
$GPRMC,144210.3,A,0436.07650,N,07403.92905,W,000.71,291.8,070315,006.6,W,A*32
$GPGGA,144210.3,0436.07650,N,07403.92905,W,1,04,1.3,2664.4,M,7.6,M,,*48
$GPVTG,291.8,T,298.4,M,000.71,N,0001.31,K,A*13
$GPRMC,144210.4,A,0436.07650,N,07403.92907,W,000.51,291.8,070315,006.6,W,A*35
$GPGGA,144210.4,0436.07650,N,07403.92907,W,1,04,1.3,2664.4,M,7.6,M,,*4D
$GPVTG,291.8,T,298.4,M,000.51,N,0000.95,K,A*1E
$GPRMC,144210.5,A,0436.07650,N,07403.92910,W,000.72,291.8,070315,006.6,W,A*33
$GPGGA,144210.5,0436.07650,N,07403.92910,W,1,04,1.3,2664.4,M,7.6,M,,*4A
$GPVTG,291.8,T,298.4,M,000.72,N,0001.34,K,A*15
$GPRMC,144210.6,A,0436.07650,N,07403.92914,W,000.92,288.7,070315,006.6,W,A*3D
$GPGGA,144210.6,0436.07650,N,07403.92914,W,1,04,1.3,2664.4,M,7.6,M,,*4D
$GPVTG,288.7,T,295.3,M,000.92,N,0001.71,K,A*17
$GPRMC,144210.7,A,0436.07650,N,07403.92917,W,001.08,289.0,070315,006.6,W,A*3B
$GPGGA,144210.7,0436.07650,N,07403.92917,W,1,04,1.3,2664.4,M,7.6,M,,*4F
$GPVTG,289.0,T,295.6,M,001.08,N,0002.00,K,A*13
$GPRMC,144210.8,A,0436.07642,N,07403.92924,W,001.22,289.8,070315,006.6,W,A*37
$GPGGA,144210.8,0436.07642,N,07403.92924,W,1,04,1.3,2664.8,M,7.6,M,,*4F
$GPVTG,289.8,T,296.3,M,001.22,N,0002.26,K,A*11
$GPRMC,144210.9,A,0436.07644,N,07403.92927,W,001.15,289.6,070315,006.6,W,A*39
$GPGGA,144210.9,0436.07644,N,07403.92927,W,1,04,1.3,2664.8,M,7.6,M,,*4B
$GPVTG,289.6,T,296.2,M,001.15,N,0002.14,K,A*1B
$GPRMC,144211.0,A,0436.07644,N,07403.92928,W,001.04,289.5,070315,006.6,W,A*3D
$GPGGA,144211.0,0436.07644,N,07403.92928,W,1,04,1.3,2664.8,M,7.6,M,,*4C
$GPVTG,289.5,T,296.0,M,001.04,N,0001.93,K,A*16
$GPGSA,A,3,21,14,24,29,,,,,,,,,2.3,1.3,1.8*33
$GPGSV,2,1,05,21,65,319,46,14,26,270,39,24,51,041,42,29,26,188,47*74
$GPGSV,2,2,05,22,00,000,25*4B
$GPRMC,144211.1,A,0436.07646,N,07403.92932,W,000.97,289.2,070315,006.6,W,A*39
$GPGGA,144211.1,0436.07646,N,07403.92932,W,1,04,1.3,2664.8,M,7.6,M,,*44
$GPVTG,289.2,T,295.8,M,000.97,N,0001.79,K,A*15
$GPRMC,144211.2,A,0436.07646,N,07403.92935,W,000.92,289.2,070315,006.6,W,A*38
$GPGGA,144211.2,0436.07646,N,07403.92935,W,1,04,1.3,2664.8,M,7.6,M,,*40
$GPVTG,289.2,T,295.8,M,000.92,N,0001.70,K,A*19
$GPRMC,144211.3,A,0436.07647,N,07403.92937,W,000.93,287.8,070315,006.6,W,A*3F
$GPGGA,144211.3,0436.07647,N,07403.92937,W,1,04,1.3,2664.8,M,7.6,M,,*42
$GPVTG,287.8,T,294.3,M,000.93,N,0001.73,K,A*15
$GPRMC,144211.4,A,0436.07647,N,07403.92940,W,000.50,287.8,070315,006.6,W,A*37
$GPGGA,144211.4,0436.07647,N,07403.92940,W,1,04,1.3,2664.8,M,7.6,M,,*45
$GPVTG,287.8,T,294.3,M,000.50,N,0000.93,K,A*15
$GPRMC,144211.5,A,0436.07647,N,07403.92943,W,001.75,286.1,070315,006.6,W,A*3B
$GPGGA,144211.5,0436.07647,N,07403.92943,W,1,04,1.3,2664.8,M,7.6,M,,*47
$GPVTG,286.1,T,292.6,M,001.75,N,0003.25,K,A*16
$GPRMC,144211.6,A,0436.07647,N,07403.92946,W,000.79,286.1,070315,006.6,W,A*30
$GPGGA,144211.6,0436.07647,N,07403.92946,W,1,04,1.3,2664.8,M,7.6,M,,*41
$GPVTG,286.1,T,292.6,M,000.79,N,0001.46,K,A*1C
$GPRMC,144211.7,A,0436.07647,N,07403.92949,W,001.40,287.9,070315,006.6,W,A*3C
$GPGGA,144211.7,0436.07647,N,07403.92949,W,1,04,1.3,2664.8,M,7.6,M,,*4F
$GPVTG,287.9,T,294.5,M,001.40,N,0002.59,K,A*16
$GPRMC,144211.8,A,0436.07649,N,07403.92955,W,001.38,285.5,070315,006.6,W,A*31
$GPGGA,144211.8,0436.07649,N,07403.92955,W,1,04,1.3,2664.7,M,7.6,M,,*4C
$GPVTG,285.5,T,292.1,M,001.38,N,0002.56,K,A*1A
$GPRMC,144211.9,A,0436.07649,N,07403.92958,W,001.31,283.7,070315,006.6,W,A*30
$GPGGA,144211.9,0436.07649,N,07403.92958,W,1,04,1.3,2664.7,M,7.6,M,,*40
$GPVTG,283.7,T,290.2,M,001.31,N,0002.43,K,A*12
$GPRMC,144212.0,A,0436.07650,N,07403.92961,W,001.32,282.9,070315,006.6,W,A*34
$GPGGA,144212.0,0436.07650,N,07403.92961,W,1,04,1.3,2664.7,M,7.6,M,,*48
$GPVTG,282.9,T,289.5,M,001.32,N,0002.44,K,A*16
$GPGSA,A,3,21,14,24,29,,,,,,,,,2.3,1.3,1.8*33
$GPGSV,2,1,05,21,65,319,46,14,26,270,39,24,51,041,42,29,26,188,46*75
$GPGSV,2,2,05,22,00,000,27*49
$GPRMC,144212.1,A,0436.07652,N,07403.92964,W,001.28,282.6,070315,006.6,W,A*36
$GPGGA,144212.1,0436.07652,N,07403.92964,W,1,04,1.3,,M,7.6,M,,*51
$GPVTG,282.6,T,289.2,M,001.28,N,0002.37,K,A*11
$GPRMC,144212.2,A,0436.07653,N,07403.92967,W,001.21,281.4,070315,006.6,W,A*3F
$GPGGA,144212.2,0436.07653,N,07403.92967,W,1,04,1.3,2664.7,M,7.6,M,,*4F
$GPVTG,281.4,T,288.0,M,001.21,N,0002.24,K,A*18
$GPRMC,144212.3,A,0436.07653,N,07403.92969,W,001.19,282.5,070315,006.6,W,A*39
$GPGGA,144212.3,0436.07653,N,07403.92969,W,1,04,1.3,2664.7,M,7.6,M,,*40
$GPVTG,282.5,T,289.1,M,001.19,N,0002.21,K,A*14
$GPRMC,144212.4,A,0436.07654,N,07403.92971,W,001.18,282.3,070315,006.6,W,A*37
$GPGGA,144212.4,0436.07654,N,07403.92971,W,1,04,1.3,2664.6,M,7.6,M,,*48
$GPVTG,282.3,T,288.9,M,001.18,N,0002.19,K,A*11
$GPRMC,144212.5,A,0436.07654,N,07403.92972,W,001.17,280.4,070315,006.6,W,A*3F
$GPGGA,144212.5,0436.07654,N,07403.92972,W,1,04,1.3,2664.6,M,7.6,M,,*4A
$GPVTG,280.4,T,287.0,M,001.17,N,0002.17,K,A*13
$GPRMC,144212.6,A,0436.07654,N,07403.92980,W,002.02,279.8,070315,006.6,W,A*3C
$GPGGA,144212.6,0436.07654,N,07403.92980,W,1,04,1.3,2664.6,M,7.6,M,,*44
$GPVTG,279.8,T,286.4,M,002.02,N,0003.74,K,A*1F
$GPRMC,144212.7,A,0436.07654,N,07403.92985,W,001.34,279.2,070315,006.6,W,A*34
$GPGGA,144212.7,0436.07654,N,07403.92985,W,1,04,1.3,2664.6,M,7.6,M,,*40
$GPVTG,279.2,T,285.8,M,001.34,N,0002.48,K,A*12
$GPRMC,144212.8,A,0436.07651,N,07403.92988,W,001.36,279.6,070315,006.6,W,A*35
$GPGGA,144212.8,0436.07651,N,07403.92988,W,1,04,1.3,2664.8,M,7.6,M,,*49
$GPVTG,279.6,T,286.1,M,001.36,N,0002.52,K,A*15
$GPRMC,144212.9,A,0436.07653,N,07403.92992,W,001.43,280.3,070315,006.6,W,A*3C
$GPGGA,144212.9,0436.07653,N,07403.92992,W,1,04,1.3,2664.8,M,7.6,M,,*41
$GPVTG,280.3,T,286.8,M,001.43,N,0002.65,K,A*19
$GPRMC,144213.0,A,0436.07655,N,07403.92997,W,001.52,281.2,070315,006.6,W,A*37
$GPGGA,144213.0,0436.07655,N,07403.92997,W,1,04,1.3,2664.8,M,7.6,M,,*4A
$GPVTG,281.2,T,287.8,M,001.52,N,0002.82,K,A*11
$GPGSA,A,3,21,14,24,29,,,,,,,,,2.3,1.3,1.8*33
$GPGSV,2,1,05,21,65,319,46,14,26,270,39,24,51,041,42,29,26,188,46*75
$GPGSV,2,2,05,22,00,000,26*48
$GPRMC,144213.1,A,0436.07657,N,07403.93002,W,001.62,281.4,070315,006.6,W,A*35
$GPGGA,144213.1,0436.07657,N,07403.93002,W,1,04,1.3,2664.8,M,7.6,M,,*4D
$GPVTG,281.4,T,288.0,M,001.62,N,0003.00,K,A*18
$GPRMC,144213.2,A,0436.07658,N,07403.93007,W,001.67,282.0,070315,006.6,W,A*3E
$GPGGA,144213.2,0436.07658,N,07403.93007,W,1,04,1.3,2664.8,M,7.6,M,,*44
$GPVTG,282.0,T,288.6,M,001.67,N,0003.09,K,A*15
$GPRMC,144213.3,A,0436.07659,N,07403.93012,W,001.67,282.7,070315,006.6,W,A*3D
$GPGGA,144213.3,0436.07659,N,07403.93012,W,1,04,1.3,2664.8,M,7.6,M,,*40
$GPVTG,282.7,T,289.3,M,001.67,N,0003.09,K,A*16
$GPRMC,144213.4,A,0436.07661,N,07403.93017,W,002.16,282.4,070315,006.6,W,A*32
$GPGGA,144213.4,0436.07661,N,07403.93017,W,1,04,1.3,2664.8,M,7.6,M,,*49
$GPVTG,282.4,T,289.0,M,002.16,N,0004.01,K,A*1C
$GPRMC,144213.5,A,0436.07662,N,07403.93022,W,002.10,283.8,070315,006.6,W,A*3D
$GPGGA,144213.5,0436.07662,N,07403.93022,W,1,04,1.3,2664.8,M,7.6,M,,*4D
$GPVTG,283.8,T,290.4,M,002.10,N,0003.88,K,A*1D
$GPRMC,144213.6,A,0436.07663,N,07403.93028,W,002.11,284.1,070315,006.6,W,A*3A
$GPGGA,144213.6,0436.07663,N,07403.93028,W,1,04,1.3,2664.8,M,7.6,M,,*45
$GPVTG,284.1,T,290.7,M,002.11,N,0003.90,K,A*18
$GPRMC,144213.7,A,0436.07664,N,07403.93033,W,002.10,284.1,070315,006.6,W,A*37
$GPGGA,144213.7,0436.07664,N,07403.93033,W,1,04,1.3,2664.8,M,7.6,M,,*49
$GPVTG,284.1,T,290.7,M,002.10,N,0003.89,K,A*11
$GPRMC,144213.8,A,0436.07671,N,07403.93038,W,002.12,284.3,070315,006.6,W,A*37
$GPGGA,144213.8,0436.07671,N,07403.93038,W,1,04,1.3,2664.6,M,7.6,M,,*47
$GPVTG,284.3,T,290.9,M,002.12,N,0003.92,K,A*15
$GPRMC,144213.9,A,0436.07672,N,07403.93043,W,001.63,284.8,070315,006.6,W,A*37
$GPGGA,144213.9,0436.07672,N,07403.93043,W,1,04,1.3,2664.6,M,7.6,M,,*49
$GPVTG,284.8,T,291.4,M,001.63,N,0003.02,K,A*1E
$GPRMC,144214.0,A,0436.07673,N,07403.93048,W,001.65,283.9,070315,006.6,W,A*33
$GPGGA,144214.0,0436.07673,N,07403.93048,W,1,04,1.3,,M,7.6,M,,*53
$GPVTG,283.9,T,290.5,M,001.65,N,0003.06,K,A*1A
$GPGSA,A,2,21,14,24,29,,,,,,,,,2.3,1.3,*15
$GPGSV,2,1,05,21,65,319,46,14,26,270,41,24,51,041,42,29,26,188,46*7A
$GPGSV,2,2,05,22,00,000,25*4B
$GPRMC,144214.1,A,0436.07674,N,07403.93052,W,001.62,283.8,070315,006.6,W,A*38
$GPGGA,144214.1,0436.07674,N,07403.93052,W,1,04,1.3,2664.6,M,7.6,M,,*40
$GPVTG,283.8,T,290.4,M,001.62,N,0002.99,K,A*1A
$GPRMC,144214.2,A,0436.07675,N,07403.93055,W,000.87,283.8,070315,006.6,W,A*37
$GPGGA,144214.2,0436.07675,N,07403.93055,W,1,04,1.3,2664.7,M,7.6,M,,*44
$GPVTG,283.8,T,290.4,M,000.87,N,0001.62,K,A*17
$GPRMC,144214.3,A,0436.07676,N,07403.93059,W,001.59,283.1,070315,006.6,W,A*32
$GPGGA,144214.3,0436.07676,N,07403.93059,W,1,04,1.3,2664.7,M,7.6,M,,*4A
$GPVTG,283.1,T,289.6,M,001.59,N,0002.94,K,A*1C
$GPRMC,144214.4,A,0436.07676,N,07403.93063,W,001.52,283.1,070315,006.6,W,A*37
$GPGGA,144214.4,0436.07676,N,07403.93063,W,1,04,1.3,2664.7,M,7.6,M,,*44
$GPVTG,283.1,T,289.7,M,001.52,N,0002.81,K,A*12
$GPRMC,144214.5,A,0436.07678,N,07403.93066,W,001.50,283.2,070315,006.6,W,A*3C
$GPGGA,144214.5,0436.07678,N,07403.93066,W,1,04,1.3,2664.7,M,7.6,M,,*4E
$GPVTG,283.2,T,289.8,M,001.50,N,0002.78,K,A*1A
$GPRMC,144214.6,A,0436.07678,N,07403.93069,W,001.43,283.1,070315,006.6,W,A*31
$GPGGA,144214.6,0436.07678,N,07403.93069,W,1,04,1.3,2664.6,M,7.6,M,,*43
$GPVTG,283.1,T,289.7,M,001.43,N,0002.64,K,A*19
$GPRMC,144214.7,A,0436.07679,N,07403.93071,W,001.37,283.5,070315,006.6,W,A*3F
$GPGGA,144214.7,0436.07679,N,07403.93071,W,1,04,1.3,2664.6,M,7.6,M,,*4A
$GPVTG,283.5,T,290.0,M,001.37,N,0002.54,K,A*12
$GPRMC,144214.8,A,0436.07681,N,07403.93075,W,001.37,283.7,070315,006.6,W,A*31
$GPGGA,144214.8,0436.07681,N,07403.93075,W,1,04,1.3,2664.6,M,7.6,M,,*46
$GPVTG,283.7,T,290.2,M,001.37,N,0002.55,K,A*13
$GPRMC,144214.9,A,0436.07682,N,07403.93079,W,001.36,283.6,070315,006.6,W,A*3F
$GPGGA,144214.9,0436.07682,N,07403.93079,W,1,04,1.3,2664.6,M,7.6,M,,*48
$GPVTG,283.6,T,290.2,M,001.36,N,0002.51,K,A*17
$GPRMC,144215.0,A,0436.07683,N,07403.93080,W,001.33,283.5,070315,006.6,W,A*36
$GPGGA,144215.0,0436.07683,N,07403.93080,W,1,04,1.3,2664.6,M,7.6,M,,*47
$GPVTG,283.5,T,290.1,M,001.33,N,0002.47,K,A*15
